stop_id,stop_code,stop_name,stop_desc,stop_lat,stop_lon,zone_id,stop_url,location_type,parent_station,stop_timezone,wheelchair_boarding
09408,,Tiborszallas,,47.815315247,22.402860641,,,0,,,0
09410,,Nyirabrany,,47.523868561,22.01612854,,,0,,,0
09422,,Biharkeresztes,,47.135643005,21.721944809,,,0,,,0
09446,,Kotegyan,,46.758621216,21.47895813,,,0,,,0
09461,,Lokoshaza,,46.432193756,21.238042831,,,0,,,0
09711,,Ruse,,43.857120514,25.976743698,,,0,,,0
10017,,Bucureşti Nord Gr.A,,44.446651459,26.073465347,,,0,,,0
10079,,Bucureşti Basarab h.,,44.458751678,26.055381775,,,0,,,0
10081,,Carpaţi h.(900),,44.468196869,26.040908813,,,0,,,0
10108,,Bucureştii Noi,,44.475528717,26.014966965,,,0,,,0
10146,,Chiajna,,44.47045517,25.980682373,,,0,,,0
10172,,Domneştii de Sus h.,,44.406097412,25.892391205,,,0,,,0
10201,,Grădinari,,44.381595612,25.825094223,,,0,,,0
10225,,Zorile h.,,44.360107422,25.762151718,,,0,,,0
10249,,Vadu Lat Hm.,,44.342739105,25.702543259,,,0,,,0
10251,,Angheleşti h.,,44.323020935,25.646402359,,,0,,,0
10263,,Zăvestreni Hm.,,44.302837372,25.592477798,,,0,,,0
10287,,Videle,,44.284168243,25.537261963,,,0,,,0
10328,,Ciolpani Hm.,,44.243743896,25.460094452,,,0,,,0
10342,,Gălăteni Hm.,,44.210693359,25.370882034,,,0,,,0
10366,,Olteni,,44.190467834,25.292291641,,,0,,,0
10380,,Vârtoapele hc.,,44.17408371,25.233375549,,,0,,,0
10407,,Rădoieşti Hm.,,44.1536026,25.160068512,,,0,,,0
10421,,Atârnaţi Hm.,,44.136249542,25.062736511,,,0,,,0
10445,,Roşiori Nord,,44.123809814,24.979366302,,,0,,,0
10469,,Măldăeni Hm.,,44.113563538,24.884260178,,,0,,,0
10483,,Mihăeşti Hm.,,44.119483948,24.77236557,,,0,,,0
10500,,Radomireşti Hm.,,44.111160278,24.670484543,,,0,,,0
10524,,Dăneasa h.,,44.13344574,24.575302124,,,0,,,0
10536,,Drăgăneşti Olt,,44.154628754,24.544698715,,,0,,,0
10548,,Stoeneşti h.,,44.120700836,24.494466782,,,0,,,0
10550,,Fărcaşele Hm.,,44.121826172,24.451892853,,,0,,,0
10574,,Caracal,,44.119415283,24.364976883,,,0,,,0
10598,,Cezieni h.,,44.152877808,24.314674377,,,0,,,0
10615,,Grozăveşti Hm.,,44.147975922,24.235712051,,,0,,,0
10639,,Radomiru hc.,,44.15631485,24.161911011,,,0,,,0
10641,,Jianca,,44.164112091,24.131568909,,,0,,,0
10653,,Ţărţăl h.,,44.179237366,24.09236145,,,0,,,0
10677,,Leu Hm.,,44.200405121,24.037347794,,,0,,,0
10706,,Pasaju Coşoveni hc.,,44.24262619,23.930194855,,,0,,,0
10718,,Malu Mare Hm.,,44.255062103,23.89739418,,,0,,,0
10720,,Viaductu Cârcea h.,,44.266651154,23.889659882,,,0,,,0
10732,,Banu Mărăcine Hm.,,44.297115326,23.859865189,,,0,,,0
10744,,Bordei hc.(900),,44.322093964,23.833761215,,,0,,,0
10770,,Craiova,,44.327083588,23.822088242,,,0,,,0
10782,,Craiova Triaj hc.,,44.339485168,23.789783478,,,0,,,0
10809,,Cernele,,44.355419159,23.756170273,,,0,,,0
10811,,Işalniţa hc.,,44.392326355,23.722904205,,,0,,,0
10823,,Işalniţa,,44.405151367,23.715917587,,,0,,,0
10835,,Almăj h.,,44.437572479,23.696317673,,,0,,,0
10847,,Coţofeni Hm.,,44.461612701,23.667020798,,,0,,,0
10859,,Km. 9+820 h.,,44.64408493,23.415502548,,,0,,,0
10861,,Brădeşti h.,,44.490657806,23.617790222,,,0,,,0
10873,,Răcari Hm.,,44.515380859,23.573862076,,,0,,,0
10885,,Termo Turceni h.,,44.663928986,23.39937973,,,0,,,0
10897,,Canton 282 h.,,44.532546997,23.544950485,,,0,,,0
10902,,Filiaşi,,44.552383423,23.510839462,,,0,,,0
10926,,Gura Motrului Hm.,,44.573795319,23.432796478,,,0,,,0
10938,,Turceni,,44.677364349,23.388067245,,,0,,,0
10940,,Butoieşti Hm.,,44.586753845,23.355388641,,,0,,,0
10952,,Ioneşti Gorj h.,,44.619350433,23.438222885,,,0,,,0
10964,,Lunca Banului h.,,44.602493286,23.276309967,,,0,,,0
10976,,Strehaia,,44.610881805,23.220541,,,0,,,0
10988,,Strehaia hc.,,44.615936279,23.193807602,,,0,,,0
11009,,Ciochiuţa Hm.,,44.603431702,23.12584877,,,0,,,0
11023,,Tâmna,,44.591281891,23.038471222,,,0,,,0
11047,,Igiroasa Hm.,,44.589267731,22.974966049,,,0,,,0
11059,,Prunişor Hm.,,44.606258392,22.922367096,,,0,,,0
11073,,Gârniţa Hm.,,44.613796234,22.849559784,,,0,,,0
11085,,Balota,,44.617523193,22.803798676,,,0,,,0
11097,,Valea Albă Hm.,,44.601631165,22.794237137,,,0,,,0
11102,,Ergheviţa h.,,44.617889404,22.776145935,,,0,,,0
11126,,Drobeta Tr.Sev Est Hm.,,44.622787476,22.679105759,,,0,,,0
11138,,Drobeta Tr. Severin Mf.,,44.608409882,22.732143402,,,0,,,0
11140,,Drobeta Tr. Severin,,44.622077942,22.643627167,,,0,,,0
11152,,Dinamica h.,,44.622932434,22.615699768,,,0,,,0
11176,,Gura Văii Hm.,,44.659870148,22.560348511,,,0,,,0
11188,,Jidoştiţa h.,,44.676998138,22.531663895,,,0,,,0
11205,,Vârciorova Hm.,,44.707595825,22.490747452,,,0,,,0
11217,,Iloviţa h.,,44.722290039,22.461481094,,,0,,,0
11229,,Şantier Naval h.,,44.722873688,22.422590256,,,0,,,0
11231,,Orşova,,44.730934143,22.416847229,,,0,,,0
11267,,Valea Cernei Hm.,,44.766952515,22.390962601,,,0,,,0
11281,,Topleţ Hm.,,44.806732178,22.385065079,,,0,,,0
11308,,Băile Herculane,,44.862628937,22.387800217,,,0,,,0
11310,,Mehadia Nouă Hm.,,44.879249573,22.383989334,,,0,,,0
11322,,Mehadia Hm.,,44.897724152,22.368614197,,,0,,,0
11346,,Iablaniţa,,44.941326141,22.327728271,,,0,,,0
11360,,Cruşovăţ,,44.995918274,22.328430176,,,0,,,0
11372,,Cornea h.,,45.034130096,22.320339203,,,0,,,0
11384,,Domaşnea Cornea Hm.,,45.0599823,22.308452606,,,0,,,0
11396,,Luncaviţa h.,,45.086277008,22.289503098,,,0,,,0
11401,,Poarta Hm.,,45.111419678,22.296186447,,,0,,,0
11425,,Teregova Hm.,,45.154888153,22.30524826,,,0,,,0
11449,,Armeniş,,45.19675827,22.30897522,,,0,,,0
11463,,Slatina Timiş,,45.249927521,22.303337097,,,0,,,0
11487,,Vălişoara Hm.,,45.305286407,22.282300949,,,0,,,0
11499,,Petroşniţa h.,,45.334342957,22.269390106,,,0,,,0
11504,,Valea Timişului Hm.,,45.354362488,22.253992081,,,0,,,0
11516,,Balta Sărată,,45.383426666,22.234169006,,,0,,,0
11528,,Caransebeş haltă h.,,45.418254852,22.213439941,,,0,,,0
11554,,Caransebeş,,45.424442291,22.221366882,,,0,,,0
11580,,Tibiscu h.,,45.456310272,22.183681488,,,0,,,0
11592,,Zăgujeni Hm.,,45.48065567,22.167720795,,,0,,,0
11619,,Căvăran,,45.548240662,22.139135361,,,0,,,0
11621,,Sacu h.,,45.573558807,22.111106873,,,0,,,0
11645,,Jena Hm.,,45.590499878,22.081382751,,,0,,,0
11657,,Găvojdia,,45.622234344,22.024663925,,,0,,,0
11671,,Tapia Hm.,,45.650299072,21.967205048,,,0,,,0
11695,,Lugoj,,45.679668427,21.89740181,,,0,,,0
11700,,Lugoj Nord h.,,45.710399628,21.886417389,,,0,,,0
11724,,Jabăr Hm.,,45.726631165,21.826652527,,,0,,,0
11748,,Belinţ Hm.,,45.744392395,21.762647629,,,0,,,0
11750,,Chizătău Hm.,,45.75019455,21.711526871,,,0,,,0
11774,,Topolovăţ,,45.768444061,21.62922287,,,0,,,0
11786,,Şuştra h.,,45.776405334,21.582111359,,,0,,,0
11803,,Recaş,,45.793682098,21.489654541,,,0,,,0
11815,,Izvin h.,,45.794254303,21.462717056,,,0,,,0
11839,,Remetea Mare,,45.786346436,21.363695145,,,0,,,0
11841,,Ghiroda h.,,45.778553009,21.307260513,,,0,,,0
11877,,Timişoara Est,,45.769245148,21.249965668,,,0,,,0
11906,,Timişoara Nord,,45.750228882,21.203317642,,,0,,,0
11956,,Săcălaz h.,,45.767726898,21.105163574,,,0,,,0
11970,,Beregsău hcv.,,45.774230957,21.00998497,,,0,,,0
11994,,Cărpiniş,,45.783664703,20.907871246,,,0,,,0
12015,,Clarii Vii h.,,45.792739868,20.7989254,,,0,,,0
12039,,Jimbolia,,45.800273895,20.718025208,,,0,,,0
123,,Vidin Patnicheska,,43.974563599,22.851949692,,,0,,,0
12326,,Sabareni,,44.531650543,25.934741974,,,0,,,0
12340,,Ciocăneşti Hm.,,44.580615997,25.851226807,,,0,,,0
12364,,Bâldana h.,,44.620758057,25.782701492,,,0,,,0
12388,,Ghergani Hm.,,44.642642975,25.71805191,,,0,,,0
12405,,Conţeşti h.,,44.656917572,25.652862549,,,0,,,0
12417,,Boteni h.,,44.660209656,25.626581192,,,0,,,0
12431,,Titu,,44.661991119,25.570119858,,,0,,,0
12443,,Dâmbovicioara h.,,44.678733826,25.560066223,,,0,,,0
12455,,Fusea Hm.,,44.673938751,25.50308609,,,0,,,0
12479,,Mătăsaru Hm.,,44.686763763,25.442567825,,,0,,,0
12493,,Cojocaru h.,,44.699977875,25.378225327,,,0,,,0
12508,,Găeşti Sud h.,,44.705165863,25.352350235,,,0,,,0
12510,,Găeşti,,44.713935852,25.304239273,,,0,,,0
12534,,Pătroaia Hm.,,44.743995667,25.208929062,,,0,,,0
12558,,Leordeni Argeş,,44.783870697,25.124267578,,,0,,,0
12572,,Călineşti Hm.,,44.810417175,25.062185287,,,0,,,0
12596,,Goleşti,,44.836898804,24.965335846,,,0,,,0
12613,,Piteşti,,44.846427917,24.889944077,,,0,,,0
12637,,Bradu de Sus,,44.814083099,24.915344238,,,0,,,0
12687,,Pârvu Hm.,,44.771308899,24.905704498,,,0,,,0
12699,,Pârvu h.,,44.733898163,24.89682579,,,0,,,0
12704,,Suseni h.,,44.704322815,24.89238739,,,0,,,0
12728,,Costeşti,,44.668575287,24.877597809,,,0,,,0
12742,,Fâlfani Hm.,,44.609378815,24.823951721,,,0,,,0
12766,,Stolnici Hm.,,44.549301147,24.781255722,,,0,,,0
12778,,Hârseşti Hm.,,44.517166138,24.756195068,,,0,,,0
12792,,Corbu,,44.495830536,24.709171295,,,0,,,0
12819,,Sineşti Hm.,,44.465862274,24.672737122,,,0,,,0
12833,,Potcoava,,44.471317291,24.603452682,,,0,,,0
12857,,Bâlteni Olt Hm.,,44.454521179,24.521619797,,,0,,,0
12871,,Recea Hm.,,44.438030243,24.45772934,,,0,,,0
12895,,Slatina,,44.423721313,24.387235641,,,0,,,0
12912,,Milcov Hm.,,44.387378693,24.388536453,,,0,,,0
12924,,Slătioara Hm.,,44.382423401,24.333734512,,,0,,,0
12936,,Criva h.,,44.372760773,24.298988342,,,0,,,0
12948,,Piatra Olt,,44.368171692,24.254953384,,,0,,,0
12974,,Brăneţ h.,,44.333850861,24.206569672,,,0,,,0
12986,,Canton 217 h.,,44.335445404,24.141166687,,,0,,,0
12998,,Balş,,44.340099335,24.116054535,,,0,,,0
13007,,Spineni h.,,44.353858948,24.075403214,,,0,,,0
13021,,Robăneşti Hm.,,44.344299316,24.008747101,,,0,,,0
13033,,Toporaş h.,,44.33663559,23.967096329,,,0,,,0
13045,,Pieleşti Hm.,,44.319286346,23.955884933,,,0,,,0
13069,,Cârcea h.,,44.284381866,23.893442154,,,0,,,0
13071,,Plaiu Vulcăneşti Hm.,,44.310813904,23.854646683,,,0,,,0
13112,,Podu Rizii h.,,44.713039398,25.55748558,,,0,,,0
13124,,Băneşti h.,,44.742465973,25.568998337,,,0,,,0
13136,,Movila Dâmboviţa h.,,44.76852417,25.561159134,,,0,,,0
13148,,Nucet,,44.788074493,25.55357933,,,0,,,0
13150,,Cazaci h.,,44.818126678,25.531019211,,,0,,,0
13162,,Săteni h.,,44.971549988,25.428266525,,,0,,,0
13174,,Văcăreşti h.,,44.856067657,25.500080109,,,0,,,0
13186,,Valea Voievozilor hc.,,44.938102722,25.492986679,,,0,,,0
13198,,Târgovişte,,44.916122437,25.455450058,,,0,,,0
13203,,Romlux h.,,44.928806305,25.436307907,,,0,,,0
13215,,TEIŞ Hm.,,44.940666199,25.443748474,,,0,,,0
13227,,Aninoasa Hm.,,44.95891571,25.44219017,,,0,,,0
13239,,Doiceşti,,44.987266541,25.411314011,,,0,,,0
13241,,Doiceşti h.,,44.998214722,25.401563644,,,0,,,0
13253,,Vulcana Pandele P.M.Aj.,,45.01638031,25.408960342,,,0,,,0
13265,,Scârlenţa h.,,45.034393311,25.426530838,,,0,,,0
13277,,Trainica h.,,45.047889709,25.437257767,,,0,,,0
13289,,Pucioasa Hm.,,45.075630188,25.431272507,,,0,,,0
13291,,Moţăieni h.,,45.092205048,25.423456192,,,0,,,0
13306,,Fieni,,45.125602722,25.420654297,,,0,,,0
13320,,Ţepeş Vodă h.,,45.149242401,25.447856903,,,0,,,0
13332,,Pietroşiţa Hm.,,45.183540344,25.440288544,,,0,,,0
13368,,Ştefăneşti Argeş Hm.,,44.863677979,24.920129776,,,0,,,0
13370,,Gropeni h.,,44.882358551,24.883937836,,,0,,,0
13382,,Ciumeşti,,44.926338196,24.884988785,,,0,,,0
13409,,Clucereasa h.,,44.98033905,24.944541931,,,0,,,0
13423,,Stâlpeni Hm.,,45.030937195,24.968301773,,,0,,,0
13447,,Drăghici h.,,45.103569031,25.013845444,,,0,,,0
13461,,Lăzăreşti Hm.,,45.148162842,24.991256714,,,0,,,0
13485,,Schitu Goleşti,,45.204494476,25.002922058,,,0,,,0
13502,,Parcul Kreţulescu h.,,45.273960114,25.050191879,,,0,,,0
13514,,Câmpulung,,45.259292603,25.037397385,,,0,,,0
13576,,Piteşti Nord,,44.870368958,24.861003876,,,0,,,0
13588,,C.I.L. h.,,44.88236618,24.840265274,,,0,,,0
13590,,Bascov Hm.,,44.895702362,24.821146011,,,0,,,0
13617,,Merişani h.,,44.965488434,24.750364304,,,0,,,0
13643,,Băiculeşti h.,,45.055011749,24.695285797,,,0,,,0
13667,,Curtea de Argeş,,45.137935638,24.67298317,,,0,,,0
13710,,Papa h.,,44.18478775,24.973579407,,,0,,,0
13722,,Drăcşenei h.,,44.229335785,24.97118187,,,0,,,0
13734,,Beuca h.,,44.271633148,24.969205856,,,0,,,0
13746,,Zâmbreasca h.,,44.302528381,24.967260361,,,0,,,0
13758,,Beuca Sat h.,,44.254051208,24.969612122,,,0,,,0
13760,,Balaci Hm.,,44.356273651,24.962839127,,,0,,,0
13772,,Surduleşti h.,,44.393657684,24.96011734,,,0,,,0
13784,,Miroşi,,44.43396759,24.945331573,,,0,,,0
13801,,Colţ h.,,44.500789642,24.900978088,,,0,,,0
14037,,Giurgiu Nord,,43.922058105,25.964847565,,,0,,,0
14049,,Giurgiu,,43.895328522,25.960798264,,,0,,,0
14178,,Răduleşti Hm.,,44.22624588,25.541332245,,,0,,,0
14192,,Târnavele Hm.,,44.158565521,25.546966553,,,0,,,0
14219,,Vlaşca Hm.,,44.096168518,25.585243225,,,0,,,0
14221,,Răsuceni h.,,44.064510345,25.628147125,,,0,,,0
14233,,Toporu,,44.033508301,25.655994415,,,0,,,0
14257,,Cetatea h.,,43.939174652,25.954717636,,,0,,,0
14269,,Chiriacu Hm.,,43.981845856,25.762687683,,,0,,,0
14283,,Stăneşti Hm.,,43.949848175,25.841184616,,,0,,,0
14295,,Onceşti h.,,43.943569183,25.895175934,,,0,,,0
14300,,Bălănoaia Hm.,,43.947998047,25.930532455,,,0,,,0
14312,,Roşiori Hm.,,44.109580994,25.005813599,,,0,,,0
14348,,Troian h.,,44.009674072,24.947099686,,,0,,,0
14362,,Salcia Teleorman Hm.,,43.933433533,24.932249069,,,0,,,0
14398,,Km. 231+600 h.,,43.837909698,24.85291481,,,0,,,0
14427,,Turnu Măgurele,,43.753898621,24.877035141,,,0,,,0
14465,,Peret hc.,,44.047561646,25.094484329,,,0,,,0
14477,,Plosca Hm.,,44.030414581,25.142766953,,,0,,,0
14491,,Buzescu h.,,44.009643555,25.223978043,,,0,,,0
14506,,Alexandria Nord h.,,43.974777222,25.309057236,,,0,,,0
14518,,Alexandria,,43.963912964,25.325807571,,,0,,,0
14673,,Pârşcoveni hc.,,44.314285278,24.275590897,,,0,,,0
14685,,Şopârliţa hc.,,44.272102356,24.299890518,,,0,,,0
14697,,Vlăduleni,,44.254875183,24.324165344,,,0,,,0
14702,,Fălcoiu h.,,44.226634979,24.345821381,,,0,,,0
14726,,Romula Hm.,,44.177490234,24.401109695,,,0,,,0
14738,,Canton 239+700 h.,,44.107578278,24.371063232,,,0,,,0
14740,,Deveselu h.,,44.058082581,24.394609451,,,0,,,0
14752,,Grupa Tehnică Caracal Hm.,,44.086437225,24.380918503,,,0,,,0
14764,,Frăsinet hc.,,44.002456665,24.421728134,,,0,,,0
14776,,Studiniţa h.,,43.97543335,24.432552338,,,0,,,0
14788,,Studina hc.,,43.939357758,24.424121857,,,0,,,0
14805,,Vişina h.,,43.886436462,24.435739517,,,0,,,0
14817,,Vişina Veche hc.,,43.865287781,24.441516876,,,0,,,0
14855,,Corabia,,43.771781921,24.503765106,,,0,,,0
14879,,Jiu Hm.,,44.305812836,23.846290588,,,0,,,0
14922,,Podari,,44.243553162,23.783943176,,,0,,,0
14946,,Sălcuţa Hm.,,44.166442871,23.70977211,,,0,,,0
14958,,Dealul Robului h.,,44.128479004,23.694980621,,,0,,,0
14960,,Segarcea,,44.081329346,23.724176407,,,0,,,0
14972,,Segarcea Nord hc.,,44.090305328,23.730062485,,,0,,,0
14984,,Portăreşti Hm.,,44.038299561,23.6465168,,,0,,,0
14996,,Cerăt h.,,44.060916901,23.687917709,,,0,,,0
15005,,Urzica Mare h.,,44.030506134,23.606042862,,,0,,,0
15017,,Afumaţi h.,,44.031734467,23.524702072,,,0,,,0
15029,,Siliştea Crucii h.,,44.031925201,23.468299866,,,0,,,0
15031,,Boureni P.M.,,44.032314301,23.437862396,,,0,,,0
15055,,Băileşti,,44.033428192,23.349691391,,,0,,,0
15093,,Moţăţei Hm.,,44.034881592,23.189783096,,,0,,,0
15110,,Maglavit h.,,44.009975433,23.121841431,,,0,,,0
15134,,Golenţi Hm.,,43.98059845,23.051822662,,,0,,,0
15172,,Calafat,,43.991218567,22.924266815,,,0,,,0
15574,,Valea Păltinişului h.,,45.449222565,22.153520584,,,0,,,0
15598,,Cornuţel Banat Hm.,,45.429851532,22.09428978,,,0,,,0
15615,,Valeadeni h.,,45.421104431,22.034107208,,,0,,,0
15639,,Brebu,,45.427986145,21.977844238,,,0,,,0
15653,,Ezeriş h.,,45.399909973,21.908090591,,,0,,,0
15677,,Bănila Câlnic h.,,45.358257294,21.892520905,,,0,,,0
15706,,Boldur h.,,45.67673111,21.795589447,,,0,,,0
15720,,Sinia Hm.,,45.684833527,21.717245102,,,0,,,0
15732,,Căpăt h.,,45.690376282,21.657939911,,,0,,,0
15756,,Buziaş,,45.657836914,21.580406189,,,0,,,0
15835,,Gătaia,,45.422622681,21.42832756,,,0,,,0
15914,,Timişoara Sud,,45.715358734,21.203386307,,,0,,,0
15938,,Timisoara C.E.T.,,45.698554993,21.200183868,,,0,,,0
15940,,Timişeni Hm.,,45.652393341,21.180400848,,,0,,,0
15964,,Pădureni Timiş  P.M.,,45.593177795,21.193092346,,,0,,,0
15988,,Jebel,,45.556598663,21.197881699,,,0,,,0
16009,,Voiteni,,45.475475311,21.223247528,,,0,,,0
16023,,Birda hcv.,,45.442432404,21.328859329,,,0,,,0
16047,,Măureni hc.,,45.422481537,21.511255264,,,0,,,0
16061,,Gherteniş hc.,,45.421009064,21.587818146,,,0,,,0
16073,,Berzovia,,45.417900085,21.633302689,,,0,,,0
16114,,Bocşa Română hc.,,45.376758575,21.709920883,,,0,,,0
16126,,Vasiova,,45.380527496,21.759973526,,,0,,,0
16140,,Bocşa Montană hc.,,45.381603241,21.780672073,,,0,,,0
16152,,Colţan h.,,45.367698669,21.801927567,,,0,,,0
16164,,Moniom h.,,45.352825165,21.830238342,,,0,,,0
16176,,Câlnic h.,,45.334384918,21.858297348,,,0,,,0
16205,,Reşiţa Nord,,45.322582245,21.872034073,,,0,,,0
16281,,Reşiţa Sud Hm.,,45.291481018,21.888526917,,,0,,,0
16308,,Giroc h.,,45.710666656,21.211250305,,,0,,,0
16310,,Semenic Hm.,,45.70627594,21.235517502,,,0,,,0
16334,,Urseni h.,,45.696258545,21.308574677,,,0,,,0
16358,,Uliuc h.,,45.680328369,21.366674423,,,0,,,0
16372,,Sacoşu Mic,,45.664848328,21.426675797,,,0,,,0
16396,,Chevereş h.,,45.655044556,21.494142532,,,0,,,0
16401,,Bacova h.,,45.658836365,21.551750183,,,0,,,0
16607,,Deta Hm.,,45.396602631,21.230669022,,,0,,,0
16621,,Denta h.,,45.345603943,21.235429764,,,0,,,0
16645,,Stamora Moraviţa,,45.273216248,21.255645752,,,0,,,0
16712,,Fizeş hc.,,45.363975525,21.594640732,,,0,,,0
16724,,Tirol hc.,,45.336448669,21.600349426,,,0,,,0
16736,,Doclin hc.,,45.313957214,21.627416611,,,0,,,0
16748,,Surduc Banat Hm.,,45.264362335,21.585584641,,,0,,,0
16750,,Forotic hc.,,45.227806091,21.57365799,,,0,,,0
16774,,Comorâşte h.,,45.178337097,21.555566788,,,0,,,0
16798,,Grădinari Caraş Hm.,,45.117061615,21.595630646,,,0,,,0
16803,,Greoni h.,,45.100517273,21.628290176,,,0,,,0
16815,,Ticvanu Mic h.,,45.091838837,21.671298981,,,0,,,0
16827,,Agadici h.,,45.076225281,21.702571869,,,0,,,0
16841,,Oraviţa,,45.036689758,21.687759399,,,0,,,0
16968,,Brădişoru de Jos h.,,45.0742836,21.712291718,,,0,,,0
16970,,Lişava Hm.,,45.105125427,21.780813217,,,0,,,0
16982,,Ciudanoviţa Pam.,,45.128219604,21.787746429,,,0,,,0
17003,,Gârlişte Hm.,,45.145462036,21.825128555,,,0,,,0
17015,,Anina,,45.088935852,21.852716446,,,0,,,0
17053,,Timişoara Vest Hm.,,45.724433899,21.168970108,,,0,,,0
17091,,Utvin h.,,45.70514679,21.127147675,,,0,,,0
17106,,Sânmihai h.,,45.690158844,21.10594368,,,0,,,0
17120,,Parţa h.,,45.645141602,21.130220413,,,0,,,0
17144,,Peciu Nou h.,,45.597961426,21.052330017,,,0,,,0
17168,,Cebza h.,,45.565738678,21.001737595,,,0,,,0
17170,,Giulvăz h,,45.548778534,20.995307922,,,0,,,0
17194,,Rudna hc.,,45.503433228,21.003688812,,,0,,,0
17211,,Cruceni hcv.,,45.470993042,20.872110367,,,0,,,0
17417,,Bucureşti Nord Gr.B,,44.449478149,26.069263458,,,0,,,0
17479,,Bucureşti Triaj hc.,,44.476455688,26.028152466,,,0,,,0
17728,,P. M. Ram. Ploieşti Tj.,,44.901550293,26.014551163,,,0,,,0
18007,,Gârbovu h.,,44.732810974,23.357442856,,,0,,,0
18019,,Sărdăneşti h.,,44.761985779,23.363882065,,,0,,,0
18033,,Plopşoru,,44.801334381,23.334150314,,,0,,,0
18069,,Peşteana Jiu h.,,44.835861206,23.300823212,,,0,,,0
18071,,Bâlteni h.,,44.859340668,23.273345947,,,0,,,0
18095,,Vlăduleni Gorj h.,,44.885463715,23.233234406,,,0,,,0
18100,,Roşia Jiu h.,,44.895465851,23.198036194,,,0,,,0
18112,,Rovinari Sud h.,,44.898731232,23.170833588,,,0,,,0
18667,,Canton 97+770 h.,,44.827957153,25.002700806,,,0,,,0
20012,,Bartolomeu,,45.662857056,25.574548721,,,0,,,0
20036,,Ghimbav Hm.,,45.669532776,25.509822845,,,0,,,0
20050,,Codlea Hm.,,45.693828583,25.457174301,,,0,,,0
20074,,Dumbrăviţa Bârsei Hm.,,45.762378693,25.433395386,,,0,,,0
20086,,Vlădeni Ardeal,,45.763679504,25.373809814,,,0,,,0
20103,,Valea Homorod h.,,45.751850128,25.31208992,,,0,,,0
20127,,Brădet Hm.,,45.753948212,25.250022888,,,0,,,0
20141,,Perşani h.,,45.787185669,25.197637558,,,0,,,0
20165,,Şercaia Hm.,,45.816085815,25.149618149,,,0,,,0
20177,,Şercaia h.,,45.825283051,25.142383575,,,0,,,0
20206,,Mândra Oltului h.,,45.824684143,25.048585892,,,0,,,0
20232,,Făgăraş,,45.830245972,24.975585938,,,0,,,0
20244,,Beclean pe Olt h.,,45.835800171,24.923660278,,,0,,,0
20268,,Dridif h.,,45.82535553,24.875715256,,,0,,,0
20270,,Voila Hm.,,45.819355011,24.833421707,,,0,,,0
20294,,Olteţ h.,,45.805164337,24.75810051,,,0,,,0
20309,,Viştea h.,,45.79813385,24.714708328,,,0,,,0
20311,,Ucea,,45.79265213,24.678020477,,,0,,,0
20359,,Arpaş Hm.,,45.784828186,24.61214447,,,0,,,0
20361,,Cârţa h.,,45.783348083,24.573825836,,,0,,,0
20373,,Scoreiu h.,,45.771560669,24.530359268,,,0,,,0
20385,,Sărata Colun h.,,45.763134003,24.502347946,,,0,,,0
20397,,Porumbacu Hm.,,45.76663208,24.456205368,,,0,,,0
20414,,Avrig Hm.,,45.732273102,24.373781204,,,0,,,0
20440,,Mârşa h.,,45.701652527,24.36031723,,,0,,,0
20464,,Racoviţa h.,,45.688236237,24.340297699,,,0,,,0
20476,,Sebeş Olt h.,,45.668266296,24.315835953,,,0,,,0
20490,,Podu Olt,,45.662242889,24.298633575,,,0,,,0
20517,,Tălmaciu Hm.,,45.670074463,24.266124725,,,0,,,0
20531,,Veştem h.,,45.722270966,24.227121353,,,0,,,0
20543,,Mohu h.,,45.740577698,24.212686539,,,0,,,0
20567,,Sibiu Gr.Şelimbăr Hm.,,45.769199371,24.199920654,,,0,,,0
20622,,Sibiu Triaj,,45.783760071,24.183441162,,,0,,,0
20634,,Atelier Zona h,,45.789375305,24.176387787,,,0,,,0
20646,,Sibiu Triaj h.,,45.780117035,24.187538147,,,0,,,0
20658,,Sibiu,,45.799766541,24.162294388,,,0,,,0
20713,,Sibiu h.(210),,45.811153412,24.148313522,,,0,,,0
20749,,Turnişor Hm.,,45.80116272,24.130273819,,,0,,,0
20775,,Cristian Sibiu h.,,45.776813507,24.024383545,,,0,,,0
20787,,Orlat,,45.761394501,23.972038269,,,0,,,0
20799,,Sibiel h.,,45.765522003,23.940908432,,,0,,,0
20804,,Săcelu Sibiului h.,,45.787624359,23.942754745,,,0,,,0
20816,,Sălişte Hm.,,45.807247162,23.900289536,,,0,,,0
20830,,Aciliu h.,,45.817279816,23.876319885,,,0,,,0
20842,,Tilişca h.,,45.824745178,23.846935272,,,0,,,0
20866,,Apoldu de Sus Hm.,,45.851257324,23.803783417,,,0,,,0
20880,,Apoldu de Jos h.,,45.877998352,23.833127975,,,0,,,0
20892,,Miercurea Sibiu Hm.,,45.891368866,23.800331116,,,0,,,0
20919,,Băile Miercurea h.,,45.908576965,23.738773346,,,0,,,0
20933,,Cunţa Hm.,,45.92805481,23.719465256,,,0,,,0
20945,,Cut h.,,45.924526215,23.661476135,,,0,,,0
20957,,Rahău h.,,45.924407959,23.628826141,,,0,,,0
20971,,Sebeş Alba,,45.957633972,23.580030441,,,0,,,0
21004,,Sebeş Glod h.,,45.972198486,23.55802536,,,0,,,0
21028,,Vinţu de Jos,,45.988513947,23.496545792,,,0,,,0
21054,,Blandiana Hm.,,45.966693878,23.441099167,,,0,,,0
21066,,Tărtăria h.,,45.948169708,23.410951614,,,0,,,0
21078,,Balomiru de Câmp h.,,45.9336586,23.367395401,,,0,,,0
21092,,Şibot,,45.929519653,23.331363678,,,0,,,0
21121,,Aurel Vlaicu,,45.899059296,23.271034241,,,0,,,0
21133,,Geoagiu h.,,45.883495331,23.24798584,,,0,,,0
21157,,Orăştie,,45.861763,23.210474014,,,0,,,0
21183,,Pricaz h.,,45.855716705,23.17373848,,,0,,,0
21200,,Turdaş Hm.,,45.836421967,23.106487274,,,0,,,0
21212,,Simeria Veche h.,,45.837703705,23.054201126,,,0,,,0
21236,,Simeria,,45.846557617,23.01436615,,,0,,,0
21250,,Săuleşti h.,,45.862155914,22.967382431,,,0,,,0
21286,,Deva,,45.884094238,22.911329269,,,0,,,0
21315,,Mintia,,45.920780182,22.849983215,,,0,,,0
21327,,Mintia h.,,45.91658783,22.825550079,,,0,,,0
21341,,Veţel h.,,45.907131195,22.802944183,,,0,,,0
21365,,Brănişca Hm.,,45.919410706,22.773368835,,,0,,,0
21389,,Bretea Mureşeană h.,,45.930686951,22.714109421,,,0,,,0
21406,,Ilia,,45.940509796,22.657325745,,,0,,,0
21432,,Gurasada Hm.,,45.943309784,22.586618423,,,0,,,0
21456,,Câmpuri Surduc Hm.,,45.936954498,22.53470993,,,0,,,0
21468,,Burjuc h.,,45.949165344,22.489042282,,,0,,,0
21482,,Zam,,46.00151825,22.440523148,,,0,,,0
21509,,Petriş pe Mureş h.,,46.014209747,22.396606445,,,0,,,0
21511,,Ilteu,,46.007389069,22.35562706,,,0,,,0
21535,,Toc h.,,46.003238678,22.321866989,,,0,,,0
21559,,Săvârşin,,46.008014679,22.232215881,,,0,,,0
21573,,Vărădia h.,,46.001823425,22.157863617,,,0,,,0
21597,,Vărădia Hm.,,46.016540527,22.133333206,,,0,,,0
21602,,Valea Mureşului h.,,46.030773163,22.088254929,,,0,,,0
21614,,Bătuţa Hm.,,46.056030273,22.04535675,,,0,,,0
21626,,Căpruţa h.,,46.081485748,22.023288727,,,0,,,0
21638,,Bârzava,,46.10225296,21.997180939,,,0,,,0
21652,,Nadăş h.,,46.10263443,21.930822372,,,0,,,0
21664,,Conop Hm.,,46.101028442,21.875808716,,,0,,,0
21676,,Corfeni h.,,46.100418091,21.835348129,,,0,,,0
21688,,Milova,,46.092224121,21.791370392,,,0,,,0
21705,,Radna,,46.093399048,21.690187454,,,0,,,0
21731,,Păuliş Hm.,,46.10710907,21.610515594,,,0,,,0
21743,,Păuliş h.,,46.124614716,21.585243225,,,0,,,0
21755,,Ghioroc,,46.151538849,21.583293915,,,0,,,0
21808,,Glogovăţ,,46.177623749,21.400100708,,,0,,,0
21834,,Arad,,46.191444397,21.324781418,,,0,,,0
21901,,Şofronea,,46.277507782,21.314947128,,,0,,,0
21925,,Curtici,,46.341060638,21.297555923,,,0,,,0
22008,,Lustic h.,,45.638240814,25.503290176,,,0,,,0
22010,,Cristian Hm.,,45.617664337,25.479625702,,,0,,,0
22034,,Râşnov,,45.594749451,25.457777023,,,0,,,0
22046,,Râşnov h.,,45.588943481,25.437721252,,,0,,,0
22060,,Tohanu Vechi hc.,,45.575691223,25.376670837,,,0,,,0
22072,,G-ral T.Moşoiu hc.,,45.568809509,25.349626541,,,0,,,0
22096,,Zărneşti,,45.562637329,25.32828331,,,0,,,0
22151,,Găneasa h.,,44.39503479,24.274217606,,,0,,,0
22163,,Găneasa Olt h.,,44.419494629,24.262933731,,,0,,,0
22175,,Arceşti Hm.,,44.453769684,24.257923126,,,0,,,0
22199,,Colibaşi h.,,44.505466461,24.259523392,,,0,,,0
22216,,Strejeşti,,44.558288574,24.25967598,,,0,,,0
22230,,Zlătărei Hm.,,44.606239319,24.259651184,,,0,,,0
22254,,Drăgăşani,,44.662406921,24.25786972,,,0,,,0
22278,,Călina h.,,44.720504761,24.255779266,,,0,,,0
22280,,Zăvideni Hm.,,44.75421524,24.248559952,,,0,,,0
22292,,Orleşti hc.,,44.798339844,24.246591568,,,0,,,0
22307,,Fişcălia Hm.,,44.816749573,24.247322083,,,0,,,0
22319,,Bucşani Vâlcea h.,,44.842300415,24.238927841,,,0,,,0
22321,,Ioneşti Hm.,,44.874324799,24.231210709,,,0,,,0
22345,,Slăviteşti hc.,,44.930465698,24.232456207,,,0,,,0
22357,,Băbeni,,44.959892273,24.238830566,,,0,,,0
22369,,Tătărani h.,,44.983566284,24.24597168,,,0,,,0
22371,,Govora,,45.02217865,24.28105545,,,0,,,0
22395,,Râureni hc.,,45.039154053,24.301557541,,,0,,,0
22400,,Râureni,,45.061134338,24.330318451,,,0,,,0
22412,,Răstoaca h.,,45.071517944,24.344747543,,,0,,,0
22424,,Ostroveni h.,,45.094936371,24.365701675,,,0,,,0
22436,,Râmnicu Vâlcea,,45.102962494,24.372570038,,,0,,,0
22448,,Râmnicu Vâlcea Nord h.,,45.120082855,24.372495651,,,0,,,0
22450,,Bujoreni Vâlcea Hm.,,45.151786804,24.376556396,,,0,,,0
22486,,Dăeşti Hm.,,45.186733246,24.383548737,,,0,,,0
22498,,Cozia Hm.,,45.320869446,24.285900116,,,0,,,0
22503,,Călimăneşti,,45.235797882,24.355131149,,,0,,,0
22515,,Păuşa h.,,45.250572205,24.340221405,,,0,,,0
22539,,Mânăstirea Turnu h.,,45.290325165,24.300041199,,,0,,,0
22565,,Lotru,,45.348003387,24.274923325,,,0,,,0
22589,,Beţel h.,,45.376182556,24.29699707,,,0,,,0
22591,,Cornet Hm.,,45.401802063,24.300893784,,,0,,,0
22606,,Balota h.,,45.434253693,24.297128677,,,0,,,0
22618,,Robeşti h.,,45.453849792,24.2949543,,,0,,,0
22632,,Câineni,,45.491470337,24.302862167,,,0,,,0
22656,,Râu Vadului h.,,45.525409698,24.272571564,,,0,,,0
22668,,Valea Fratelui h.,,45.547843933,24.269578934,,,0,,,0
22670,,Valea Mărului Hm.,,45.602153778,24.265050888,,,0,,,0
22694,,Turnu Roşu hc.,,45.643188477,24.295677185,,,0,,,0
22929,,Coşlariu,,46.17269516,23.676713943,,,0,,,0
22967,,Sântimbru h.,,46.136230469,23.652072906,,,0,,,0
22981,,Sântimbru  Hm.,,46.126480103,23.632053375,,,0,,,0
22993,,Bărăbanţ Nord h.,,46.110187531,23.577205658,,,0,,,0
23002,,Bărăbanţ Hm.,,46.090682983,23.598777771,,,0,,,0
23014,,Antestaţie Bărăbanţ h.,,46.101657867,23.60717392,,,0,,,0
23038,,Alba Iulia,,46.056159973,23.576137543,,,0,,,0
23155,,Bungeţel h.,,44.563217163,23.499980927,,,0,,,0
23167,,Ţânţăreni Hm.,,44.597763062,23.504880905,,,0,,,0
23179,,Floreşti hc.,,44.624092102,23.51417923,,,0,,,0
23193,,Gilort Hm.,,44.657066345,23.523906708,,,0,,,0
23210,,Turburea Hm.,,44.714660645,23.511621475,,,0,,,0
23234,,Bibeşti Hm.,,44.778827667,23.500881195,,,0,,,0
23258,,Musculeşti,,44.818466187,23.511642456,,,0,,,0
23272,,Bărbăteşti Hm.,,44.872028351,23.511615753,,,0,,,0
23296,,Jupâneşti Hm.,,44.910186768,23.519500732,,,0,,,0
23313,,Cărbuneşti,,44.9557724,23.508493423,,,0,,,0
23349,,Pojogeni Hm.,,44.992240906,23.485691071,,,0,,,0
23351,,Scoarţa h.,,45.011360168,23.455633163,,,0,,,0
23363,,Copăcioasa Hm.,,45.024284363,23.431756973,,,0,,,0
23387,,Budieni h.,,45.021015167,23.398710251,,,0,,,0
23399,,Lunca Budieni Hm.,,45.020149231,23.359724045,,,0,,,0
23428,,Târgu Jiu,,45.031860352,23.280927658,,,0,,,0
23430,,Ramificaţia C.A.M. h.,,45.04101181,23.283597946,,,0,,,0
23454,,Ecaterina Teodoroiu,,45.066486359,23.30175209,,,0,,,0
23466,,Ezureni h.,,45.088600159,23.324649811,,,0,,,0
23478,,Parângu Hm.,,45.110469818,23.343402863,,,0,,,0
23492,,Bumbeşti Hm.,,45.155975342,23.377349854,,,0,,,0
23507,,Valea Sadului Hm.,,45.183017731,23.384887695,,,0,,,0
23521,,Meri,,45.220115662,23.382074356,,,0,,,0
23533,,Lainici Hm.,,45.269924164,23.384662628,,,0,,,0
23557,,Pietrele Albe Hm.,,45.306602478,23.384393692,,,0,,,0
23569,,Strâmbuţa Hm.,,45.355678558,23.382350922,,,0,,,0
23583,,Livezeni,,45.37682724,23.367620468,,,0,,,0
23612,,Lunca Jiului hc.,,45.401752472,23.373260498,,,0,,,0
23624,,Petroşani,,45.423412323,23.366258621,,,0,,,0
23636,,Petroşani Triaj h.,,45.442871094,23.358085632,,,0,,,0
23715,,Peştera Bolii h.,,45.448368073,23.321380615,,,0,,,0
23739,,Băniţa,,45.4478302,23.263393402,,,0,,,0
23753,,Merişor Hm.,,45.455715179,23.231472015,,,0,,,0
23765,,Crivadia Hm.,,45.463470459,23.197383881,,,0,,,0
23777,,Baru Mare h.,,45.466026306,23.166397095,,,0,,,0
23789,,Baru Mare,,45.475254059,23.144296646,,,0,,,0
23806,,Livadia h.,,45.49539566,23.127737045,,,0,,,0
23818,,Ponor h.,,45.505832672,23.118812561,,,0,,,0
23832,,Pui,,45.519760132,23.082790375,,,0,,,0
23844,,Ruşor h.,,45.531280518,23.027496338,,,0,,,0
23856,,Băeşti Hm.,,45.541023254,23.008056641,,,0,,,0
23868,,Ohaba de sub Piatră h.,,45.548698425,22.989425659,,,0,,,0
23870,,Ciopea h.,,45.562782288,22.97627449,,,0,,,0
23894,,Subcetate,,45.594902039,22.992219925,,,0,,,0
23923,,Covragiu h.,,45.619560242,23.001285553,,,0,,,0
23935,,Plopi h.,,45.63533783,22.997339249,,,0,,,0
23947,,Bretea Streiului Hm.,,45.653102875,22.995767593,,,0,,,0
23961,,Măceu h.,,45.675991058,22.99212265,,,0,,,0
23973,,Ruşi h.,,45.698360443,22.989097595,,,0,,,0
23997,,Călan Hm.,,45.730037689,22.989797592,,,0,,,0
24020,,Călan Băi,,45.759578705,22.999586105,,,0,,,0
24032,,Batiz h.,,45.775676727,22.998456955,,,0,,,0
24044,,Băcia Hm.,,45.792598724,22.999959946,,,0,,,0
24056,,Băcia h.,,45.804855347,23.001386642,,,0,,,0
24082,,Simeria Triaj,,45.828800201,23.012449265,,,0,,,0
24563,,Vârţ h.,,44.943965912,23.136768341,,,0,,,0
24575,,Amaradia,,44.98380661,23.245153427,,,0,,,0
24587,,Drăguţeşti h.,,44.967247009,23.221401215,,,0,,,0
24599,,Cârbeşti Hm.,,44.94896698,23.191148758,,,0,,,0
24604,,Rogojelu,,44.925712585,23.135290146,,,0,,,0
24616,,Rovinari Hm.,,44.902080536,23.157718658,,,0,,,0
24628,,Km. 49+800 h.,,44.905056,23.147773743,,,0,,,0
24862,,Dobra Hm.,,45.918087006,22.569503784,,,0,,,0
24886,,Lăpugiu h.,,45.90511322,22.499734879,,,0,,,0
24898,,Coşteiu h.,,45.897388458,22.369457245,,,0,,,0
24903,,Ohaba hc.,,45.886779785,22.446229935,,,0,,,0
24915,,Holdea Hm.,,45.894699097,22.393306732,,,0,,,0
24939,,Nemeşeşti h.,,45.884132385,22.320653915,,,0,,,0
24941,,Margina,,45.856498718,22.265375137,,,0,,,0
24977,,Făget,,45.848701477,22.16900444,,,0,,,0
24991,,Răchita h.,,45.829467773,22.109535217,,,0,,,0
25012,,Mănăştur Hm.,,45.827922821,22.067609787,,,0,,,0
25024,,Traian Vuia h.,,45.812599182,22.024528503,,,0,,,0
25036,,Susani Bega h.,,45.808609009,21.999420166,,,0,,,0
25048,,Cliciova,,45.812011719,21.957191467,,,0,,,0
25050,,Nevrincea h.,,45.804016113,21.902780533,,,0,,,0
25062,,Balinţ h.,,45.796398163,21.864128113,,,0,,,0
25074,,Păru h.,,45.76518631,21.86097908,,,0,,,0
25086,,Coşteiu Mare Hm.,,45.74962616,21.858499527,,,0,,,0
25103,,Viile Giarmata h.,,45.8005867,21.292877197,,,0,,,0
25115,,Giarmata Hm.,,45.833530426,21.307430267,,,0,,,0
25127,,Cerneteaz h.,,45.838317871,21.285200119,,,0,,,0
25141,,Pişchia h.,,45.894763947,21.343677521,,,0,,,0
25153,,Bencei h.,,45.926826477,21.383205414,,,0,,,0
25165,,Fibiş h.,,45.954319,21.41950798,,,0,,,0
25177,,Remetea Mică,,45.971168518,21.468238831,,,0,,,0
25256,,Ronaţ Triaj h,,45.785106659,21.170289993,,,0,,,0
25282,,Ronaţ Triaj Gr. D,,45.794704437,21.167053223,,,0,,,0
25309,,Sânandrei Hm.,,45.848896027,21.149368286,,,0,,,0
25323,,Băile Călacea,,45.912372589,21.171197891,,,0,,,0
25347,,Orţişoara,,45.963562012,21.190729141,,,0,,,0
25361,,Vinga Hm.,,46.016624451,21.199386597,,,0,,,0
25385,,Şag Hm.,,46.058753967,21.270360947,,,0,,,0
25402,,Valea Viilor Hm.,,46.098667145,21.311431885,,,0,,,0
25426,,Aradu Nou,,46.144145966,21.33518219,,,0,,,0
25440,,Arad Vest,,46.199451447,21.280305862,,,0,,,0
25452,,Ferma Ciala h.,,46.195804596,21.237892151,,,0,,,0
25476,,Sântoma h.,,46.184764862,21.182125092,,,0,,,0
25488,,Pecica,,46.1745224,21.086154938,,,0,,,0
25529,,Semlac h.,,46.116104126,20.925989151,,,0,,,0
25543,,Şeitin h.,,46.11781311,20.841901779,,,0,,,0
25567,,Nădlac,,46.159519196,20.767120361,,,0,,,0
25646,,Zădăreni Hm.,,46.129428864,21.221626282,,,0,,,0
25658,,Bodrogu Nou h.,,46.125507355,21.196540833,,,0,,,0
25672,,Felnac hc.,,46.11057663,21.135242462,,,0,,,0
25696,,Sânpetru German h.,,46.101287842,21.050058365,,,0,,,0
25701,,Munor h.,,46.099594116,21.016511917,,,0,,,0
25713,,Secusigiu h,,46.084129333,20.989658356,,,0,,,0
25725,,Aranca h.,,46.074733734,20.969106674,,,0,,,0
25751,,Periam,,46.036388397,20.872699738,,,0,,,0
25787,,Sânpetru h.,,46.037784576,20.814846039,,,0,,,0
25804,,Saravale h.,,46.051830292,20.739749908,,,0,,,0
25828,,Dudeştii Vechi  h,,46.030708313,20.475349426,,,0,,,0
25830,,Vălcani hcv.,,45.991847992,20.405033112,,,0,,,0
25866,,Hodoni h.,,45.901950836,21.082172394,,,0,,,0
25878,,Chinezu h.,,45.94613266,21.051212311,,,0,,,0
25880,,Bărăteaz h.,,45.980163574,21.068798065,,,0,,,0
25892,,Gelu hc.,,46.002315521,21.044279099,,,0,,,0
25919,,Variaş hc.,,46.015911102,20.966251373,,,0,,,0
25933,,Pesac h.,,45.998687744,20.828187943,,,0,,,0
25957,,Gotlob h.,,45.934944153,20.698730469,,,0,,,0
25971,,Comloşu Mare h.,,45.900501251,20.624927521,,,0,,,0
25995,,Teremia Banat hc.,,45.929100037,20.529088974,,,0,,,0
26004,,Nerău hcv.,,45.962104797,20.550695419,,,0,,,0
26042,,Dudeştii Noi Hm.,,45.825416565,21.11079216,,,0,,,0
26066,,Pescăreţu Mic hc.,,45.827217102,21.051067352,,,0,,,0
26080,,Biled,,45.883361816,20.949319839,,,0,,,0
26107,,Şandra h.,,45.919246674,20.896888733,,,0,,,0
26121,,Satu Nou Hm.,,45.96264267,20.819288254,,,0,,,0
26145,,Lovrin,,45.965442657,20.755514145,,,0,,,0
26171,,Tomnaticu h.,,45.992038727,20.671949387,,,0,,,0
26195,,Sânnicolau Mare,,46.054233551,20.641580582,,,0,,,0
26212,,Sânnicolau Nord h.,,46.081859589,20.62336731,,,0,,,0
26236,,Cenad h.,,46.134990692,20.595336914,,,0,,,0
27034,,Şard Ighiu h.,,46.122379303,23.521602631,,,0,,,0
27046,,Tăutu Ampoiului h.,,46.096691132,23.468086243,,,0,,,0
27058,,Văleni Meteş h.,,46.092060089,23.420703888,,,0,,,0
27060,,Poiana Ampoiului h.,,46.08890152,23.393411636,,,0,,,0
27072,,Prisaca h.,,46.099529266,23.330059052,,,0,,,0
27084,,Feneş h.,,46.092819214,23.300897598,,,0,,,0
27096,,Zlatna Tehnică,,46.089347839,23.262224197,,,0,,,0
27101,,Zlatna hcv.,,46.108413696,23.229549408,,,0,,,0
27113,,Zlatna h.,,46.104690552,23.239152908,,,0,,,0
27137,,Ampoiţa h.,,46.11138916,23.491851807,,,0,,,0
27175,,Glogoveţ h.,,46.131084442,24.013019562,,,0,,,0
27735,,Km. 107+000 h.,,44.841861725,24.898010254,,,0,,,0
27747,,Km. 109+000 h.,,44.839611053,24.897066116,,,0,,,0
27759,,Km. 200+400 P.aj.m,,44.057014465,24.9760952,,,0,,,0
27917,,Ram. Goleşti,,44.828075409,24.933990479,,,0,,,0
27955,,R. 1 Jiu,,44.302322388,23.84280014,,,0,,,0
28014,,Km. 105+600 h.,,45.284473419,23.389484406,,,0,,,0
30081,,P.O. Aeroport h.,,44.584854126,26.072553635,,,0,,,0
30108,,Depoul Buc.Triaj h. (700),,44.475467682,26.029979706,,,0,,,0
30110,,Chitila,,44.502040863,25.984516144,,,0,,,0
30146,,Buftea,,44.564174652,25.957235336,,,0,,,0
30158,,Dârza h.,,44.599891663,25.957138062,,,0,,,0
30172,,Peris,,44.678192139,25.996637344,,,0,,,0
30184,,Scroviştea h.,,44.721630096,26.023599625,,,0,,,0
30196,,Crivina,,44.760166168,26.025903702,,,0,,,0
30201,,Prahova h.,,44.803520203,26.02796936,,,0,,,0
30225,,Brazi,,44.862838745,26.026414871,,,0,,,0
30251,,Ploieşti Triaj,,44.902183533,26.014373779,,,0,,,0
30304,,Ploieşti Vest,,44.924545288,25.99461174,,,0,,,0
30378,,Buda,,44.963489532,25.926046371,,,0,,,0
30392,,Floreşti Prahova,,45.03017807,25.809831619,,,0,,,0
30407,,Bobolia h.,,45.092414856,25.746730804,,,0,,,0
30421,,Câmpina,,45.132610321,25.7114048,,,0,,,0
30457,,Breaza hc.,,45.173522949,25.685539246,,,0,,,0
30469,,Nistoreşti h.,,45.19493103,25.672586441,,,0,,,0
30471,,Breaza Nord h.,,45.215869904,25.648170471,,,0,,,0
30483,,Comarnic,,45.242355347,25.632740021,,,0,,,0
30495,,Posada h.,,45.281265259,25.61725235,,,0,,,0
30500,,Valea Largă Hm.,,45.309360504,25.567956924,,,0,,,0
30512,,Sinaia Sud h.,,45.333755493,25.559526443,,,0,,,0
30524,,Sinaia,,45.352481842,25.552780151,,,0,,,0
30536,,Poiana Ţapului hc.,,45.390712738,25.541353226,,,0,,,0
30548,,Buşteni,,45.415859222,25.537607193,,,0,,,0
30550,,Azuga,,45.445018768,25.552589417,,,0,,,0
30615,,Predeal,,45.505622864,25.575645447,,,0,,,0
30641,,Timişu de Sus Hm.,,45.54750061,25.587871552,,,0,,,0
30653,,Timişu de Jos h.,,45.585380554,25.623041153,,,0,,,0
30665,,Dârste,,45.619075775,25.653795242,,,0,,,0
30691,,Braşov,,45.661678314,25.613557816,,,0,,,0
30835,,Stupini Hm.,,45.699714661,25.595300674,,,0,,,0
30859,,Bod Hm.,,45.75919342,25.603841782,,,0,,,0
30885,,Feldioara Hm.,,45.825359344,25.586368561,,,0,,,0
30897,,Rotbav h.,,45.841377258,25.563312531,,,0,,,0
30902,,Vadu Roşu h.,,45.873817444,25.544584274,,,0,,,0
30914,,Măieruş h.,,45.898990631,25.546260834,,,0,,,0
30938,,Apaţa,,45.952636719,25.536258698,,,0,,,0
30952,,Ormeniş h.,,46.001544952,25.557418823,,,0,,,0
30988,,Augustin Hm.,,46.047973633,25.545930862,,,0,,,0
31011,,Racoş Hm.,,46.021587372,25.422319412,,,0,,,0
31023,,Mateiaş h.,,46.028385162,25.383407593,,,0,,,0
31047,,Rupea,,46.017879486,25.278581619,,,0,,,0
31073,,Caţa Hm.,,46.09223938,25.271194458,,,0,,,0
31097,,Paloş Ardeal h.,,46.12210083,25.220016479,,,0,,,0
31102,,Beia Hm.,,46.153827667,25.184612274,,,0,,,0
31126,,Archita h,,46.182785034,25.096237183,,,0,,,0
31140,,Mureni Hm.,,46.226020813,24.996208191,,,0,,,0
31164,,Vânători,,46.243572235,24.919052124,,,0,,,0
31190,,Albeşti Târnava Hm.,,46.237663269,24.855995178,,,0,,,0
31217,,Sighişoara,,46.226585388,24.79577446,,,0,,,0
31243,,Daneş Hm.,,46.225437164,24.702882767,,,0,,,0
31255,,Luna h.,,46.220386505,24.628055573,,,0,,,0
31279,,Dumbrăveni,,46.215919495,24.561403275,,,0,,,0
31293,,Aţel h.,,46.19745636,24.475854874,,,0,,,0
31308,,Bratei h.,,46.175113678,24.421907425,,,0,,,0
31334,,Mediaş,,46.160461426,24.351314545,,,0,,,0
31372,,Târnava h.,,46.133861542,24.29924202,,,0,,,0
31401,,Copşa Mică,,46.114624023,24.229753494,,,0,,,0
31437,,Micăsasa h.,,46.0900383,24.111867905,,,0,,,0
31449,,Lunca h.,,46.091529846,24.066198349,,,0,,,0
31451,,Valea Lungă Hm.,,46.118396759,24.036306381,,,0,,,0
31463,,Mănărade h.,,46.142364502,23.984634399,,,0,,,0
31504,,Câmpu Libertăţii  h.,,46.172504425,23.940233231,,,0,,,0
31530,,Blaj,,46.176292419,23.909433365,,,0,,,0
31566,,Crăciunel Hm.,,46.172714233,23.844036102,,,0,,,0
31580,,Cistei h.,,46.182044983,23.75548172,,,0,,,0
31592,,Mihalţ h.,,46.175067902,23.709522247,,,0,,,0
31619,,Coşlariu Gr. P. Mureş,,46.175460815,23.691894531,,,0,,,0
31645,,Teiuş,,46.203605652,23.691358566,,,0,,,0
31695,,Aiud Hm.,,46.312538147,23.735349655,,,0,,,0
31712,,Mirăslău h.,,46.36126709,23.720777512,,,0,,,0
31724,,Decea h.,,46.378257751,23.766786575,,,0,,,0
31748,,Unirea Hm.,,46.391105652,23.804838181,,,0,,,0
31750,,Unirea hc.,,46.399673462,23.83914566,,,0,,,0
31774,,Războieni,,46.414714813,23.885692596,,,0,,,0
31786,,Grindeni h.,,46.436565399,23.896520615,,,0,,,0
31798,,Călăraşi Turda Hm.,,46.487041473,23.885654449,,,0,,,0
31827,,Câmpia Turzii,,46.5470047,23.879581451,,,0,,,0
31853,,Cânepişti h.,,46.607566833,23.847135544,,,0,,,0
31865,,Ploscoş h.,,46.636730194,23.851051331,,,0,,,0
31877,,Valea Florilor Hm.,,46.664840698,23.860771179,,,0,,,0
31891,,Boju Hm.,,46.702003479,23.836687088,,,0,,,0
31918,,Tunel Hm.,,46.732257843,23.813951492,,,0,,,0
31920,,Cojocna Hm.,,46.766822815,23.790149689,,,0,,,0
31944,,Apahida,,46.791717529,23.743049622,,,0,,,0
31968,,Dezmir h.,,46.780586243,23.698869705,,,0,,,0
31982,,Cluj Napoca Est,,46.778839111,23.670482635,,,0,,,0
32015,,Cluj Napoca,,46.784618378,23.586925507,,,0,,,0
32053,,Baciu Triaj Hm.,,46.787380219,23.528085709,,,0,,,0
32091,,Rădaia h.,,46.804695129,23.454061508,,,0,,,0
32106,,Suceag h.,,46.800060272,23.478303909,,,0,,,0
32118,,Mera Hm.,,46.806915283,23.445781708,,,0,,,0
32120,,Nădăşel h.,,46.815795898,23.425775528,,,0,,,0
32144,,Gârbău Hm.,,46.8306427,23.359502792,,,0,,,0
32156,,Macău h.,,46.847213745,23.314371109,,,0,,,0
32168,,Dorolţu h.,,46.860412598,23.301183701,,,0,,,0
32182,,Aghireş,,46.866035461,23.278835297,,,0,,,0
32194,,Gălăşeni h.,,46.880462646,23.172643661,,,0,,,0
32209,,Aghireş h.,,46.873447418,23.247463226,,,0,,,0
32223,,Stana Hm.,,46.872955322,23.146982193,,,0,,,0
32235,,Jebuc h.,,46.864494324,23.093809128,,,0,,,0
32261,,Huedin,,46.866962433,23.032371521,,,0,,,0
32285,,Brăişoru Hm.,,46.880393982,22.920568466,,,0,,,0
32297,,Bologa h.,,46.893196106,22.880353928,,,0,,,0
32302,,Poieni,,46.914741516,22.861362457,,,0,,,0
32314,,Valea Drăganului h.,,46.934749603,22.844675064,,,0,,,0
32326,,Ciucea Hm.,,46.954605103,22.811515808,,,0,,,0
32338,,Negreni h.,,46.951797485,22.781421661,,,0,,,0
32340,,Lacu Crişului h.,,46.959552765,22.735990524,,,0,,,0
32352,,Piatra Craiului Hm.,,46.946670532,22.702508926,,,0,,,0
32364,,Bulz Hm.,,46.934238434,22.662782669,,,0,,,0
32376,,Stâna de Vale h.,,46.928085327,22.648376465,,,0,,,0
32388,,Bratca,,46.928840637,22.603179932,,,0,,,0
32390,,Bălnaca h.,,46.934204102,22.579216003,,,0,,,0
32405,,Şuncuiuş Hm.,,46.949054718,22.537628174,,,0,,,0
32417,,Peştera h.,,46.960670471,22.51316452,,,0,,,0
32431,,Vadu Crişului Hm.,,46.994728088,22.495838165,,,0,,,0
32455,,Vadu Crişului h.,,46.977966309,22.508449554,,,0,,,0
32479,,Butan h.,,47.019283295,22.443170547,,,0,,,0
32481,,Aleşd h.,,47.037349701,22.390266418,,,0,,,0
32508,,Aleşd,,47.040000916,22.356859207,,,0,,,0
32522,,Ţeţchea hc.,,47.042812347,22.318120956,,,0,,,0
32534,,Telechiu Hm.,,47.046764374,22.267459869,,,0,,,0
32558,,Tileagd,,47.053695679,22.210289001,,,0,,,0
32572,,Săbolciu h.,,47.054897308,22.140327454,,,0,,,0
32584,,Săcădat h.,,47.050880432,22.110809326,,,0,,,0
32601,,Oşorhei Hm.,,47.03956604,22.034162521,,,0,,,0
32637,,Oradea Est,,47.043632507,21.963064194,,,0,,,0
32663,,Oradea,,47.070121765,21.936531067,,,0,,,0
32704,,Oradea Vest Hm.,,47.057403564,21.891384125,,,0,,,0
32742,,Episcopia Bihor,,47.099658966,21.877082825,,,0,,,0
32883,,Crângu Lui Bot Hm.,,44.923671722,25.918130875,,,0,,,0
32895,,Crângu Lui Tei hc.,,44.921543121,25.884778976,,,0,,,0
32900,,Târgşoru Nou Hm.,,44.919109344,25.857315063,,,0,,,0
32912,,Brătăşanca h.,,44.913398743,25.821866989,,,0,,,0
32924,,P. mac. Zalhanaua,,44.907958984,25.78651619,,,0,,,0
32948,,I. L. Caragiale,,44.908046722,25.723472595,,,0,,,0
32950,,I. L. Caragiale Vest h.,,44.910087585,25.683790207,,,0,,,0
32974,,Mija,,44.912525177,25.658723831,,,0,,,0
32998,,Adânca PM.,,44.92130661,25.596418381,,,0,,,0
33019,,Răzvad hc.,,44.930240631,25.521873474,,,0,,,0
33033,,Târgovişte Nord,,44.947750092,25.462594986,,,0,,,0
33277,,Găgeni hc.,,45.024513245,25.937255859,,,0,,,0
33289,,Plopeni,,45.049259186,25.955335617,,,0,,,0
33291,,Plopeni Sat Hm.,,45.060661316,25.968975067,,,0,,,0
33306,,Găvănel hc.,,45.080936432,25.995313644,,,0,,,0
33318,,Mălăeşti h.,,45.10118866,26.009227753,,,0,,,0
33320,,Coţofeneşti h.,,45.129447937,26.000396729,,,0,,,0
33332,,Poiana Slănic h.,,45.153961182,25.985551834,,,0,,,0
33344,,Vărbilău hc.,,45.185531616,25.955385208,,,0,,,0
33356,,Prăjani h.,,45.204723358,25.94997406,,,0,,,0
33368,,Slănic,,45.23179245,25.938724518,,,0,,,0
33370,,Vlădeşti h.,,45.17408371,25.975923538,,,0,,,0
33473,,Săcuienii Noi h.,,46.258068085,24.971401215,,,0,,,0
33485,,Sântămaria h.,,46.280296326,25.006353378,,,0,,,0
33502,,Cristur Hm.,,46.293762207,25.038860321,,,0,,,0
33514,,Beteşti Est h.,,46.289901733,25.093738556,,,0,,,0
33526,,Beteşti h.,,46.294864655,25.068523407,,,0,,,0
33538,,Porumbenii Mici h.,,46.277019501,25.103319168,,,0,,,0
33540,,Porumbenii Mari h.,,46.268676758,25.139141083,,,0,,,0
33552,,Lutiţa h.,,46.255748749,25.18727684,,,0,,,0
33564,,Dobeni h.,,46.256694794,25.207435608,,,0,,,0
33576,,Feliceni h.,,46.266792297,25.260063171,,,0,,,0
33590,,Odorhei Sud hc.,,46.307601929,25.289964676,,,0,,,0
33605,,Odorhei,,46.310295105,25.302406311,,,0,,,0
33710,,Ocna Sibiului Hm.,,45.857086182,24.067550659,,,0,,,0
33746,,Băile Ocna Sibiului h.,,45.875385284,24.07053566,,,0,,,0
33758,,Mândra h.,,45.924125671,24.07588768,,,0,,,0
33760,,Loamneş Hm.,,45.938930511,24.087852478,,,0,,,0
33772,,Hăşag h.,,45.971385956,24.10738945,,,0,,,0
33784,,Veşeud h.,,45.990619659,24.146627426,,,0,,,0
33796,,Şeica Mare h.,,46.022289276,24.157623291,,,0,,,0
33801,,Şeica Mare,,46.034038544,24.16302681,,,0,,,0
33825,,Agârbiciu h.,,46.068706512,24.189874649,,,0,,,0
33837,,Axente Sever h.,,46.095462799,24.213710785,,,0,,,0
33875,,Sâncel h.,,46.200145721,23.935800552,,,0,,,0
33887,,Pănade h.,,46.218235016,23.966579437,,,0,,,0
33899,,Şona h.,,46.222236633,24.010221481,,,0,,,0
33904,,Sfântu Nicolae h.,,46.232540131,24.046190262,,,0,,,0
33916,,Bălcaci h.,,46.231719971,24.072294235,,,0,,,0
33928,,Jidvei  hcv.,,46.23015213,24.108343124,,,0,,,0
33930,,Cetatea de Baltă h.,,46.245323181,24.164258957,,,0,,,0
33942,,Corneşti Târnava h.,,46.30072403,24.212053299,,,0,,,0
33954,,Adămuş h.,,46.314483643,24.237388611,,,0,,,0
33966,,Crăieşti h.,,46.291301727,24.202867508,,,0,,,0
33978,,Târnăveni Vest Hm.,,46.324222565,24.269102097,,,0,,,0
34001,,Târnăveni,,46.328437805,24.298921585,,,0,,,0
34037,,Găneşti h.,,46.343963623,24.365600586,,,0,,,0
34049,,Deaj h.,,46.352157593,24.395109177,,,0,,,0
34051,,Mica h.,,46.360160828,24.420288086,,,0,,,0
34063,,Bernadea h.,,46.373924255,24.449121475,,,0,,,0
34075,,Bahnea h.,,46.383026123,24.488712311,,,0,,,0
34087,,Laslău h.,,46.392360687,24.542842865,,,0,,,0
34099,,Şoimuş h.,,46.396846771,24.591863632,,,0,,,0
34104,,Coroiu h.,,46.402111053,24.612466812,,,0,,,0
34128,,Bălăuşeri hcv.,,46.407222748,24.700143814,,,0,,,0
34130,,Fântânele h.,,46.417114258,24.762540817,,,0,,,0
34154,,Sângeorgiu de Pădure h.,,46.424163818,24.84205246,,,0,,,0
34178,,Cioc h.,,46.471916199,24.900285721,,,0,,,0
34180,,Ghindari h.,,46.50087738,24.92937088,,,0,,,0
34192,,Chibed h.,,46.531764984,24.962457657,,,0,,,0
34207,,Sărăţeni h.,,46.556774139,25.005746841,,,0,,,0
34219,,Sovata  hcv.,,46.578586578,25.048456192,,,0,,,0
34233,,Praid,,46.551410675,25.115549088,,,0,,,0
34257,,Feisa h.,,46.231822968,24.13732338,,,0,,,0
34477,,Oradea Est Triaj h.,,47.034255981,21.972084045,,,0,,,0
34609,,Holod,,46.781539917,22.129905701,,,0,,,0
34611,,Holod Vest Hm.,,46.775806427,22.105068207,,,0,,,0
34623,,Ginta h.,,46.752548218,22.116586685,,,0,,,0
34635,,Căpâlna hc.,,46.7304039,22.115756989,,,0,,,0
34647,,Suplacu de Tinca h.,,46.707008362,22.125318527,,,0,,,0
34659,,Şoimi hc.,,46.688266754,22.121547699,,,0,,,0
34661,,Urviş h.,,46.678871155,22.153860092,,,0,,,0
34673,,Borz hc.,,46.671329498,22.182092667,,,0,,,0
34685,,Uilacu Beiuş hc.,,46.675582886,22.223730087,,,0,,,0
34697,,Ioaniş Hm.,,46.675388336,22.27163887,,,0,,,0
34702,,Finiş hc.,,46.658809662,22.31595993,,,0,,,0
34714,,Beiuş h.,,46.661632538,22.360675812,,,0,,,0
34726,,Beiuş,,46.661865234,22.360294342,,,0,,,0
34740,,Tărcaia h.,,46.633102417,22.385023117,,,0,,,0
34752,,Sudrigiu Hm.,,46.604679108,22.418888092,,,0,,,0
34764,,Rieni Bihor hc.,,46.576030731,22.439428329,,,0,,,0
34776,,Ştei Hm.,,46.535526276,22.453075409,,,0,,,0
34790,,Vaşcău,,46.482143402,22.474151611,,,0,,,0
34972,,Dumbrava Bihor h.,,46.776638031,22.085922241,,,0,,,0
34984,,Râpa hc.,,46.776828766,22.000110626,,,0,,,0
35005,,Tinca Hm.,,46.782333374,21.927322388,,,0,,,0
35031,,Tăut h.,,46.742893219,21.827943802,,,0,,,0
35055,,Batăr h.,,46.724342346,21.768760681,,,0,,,0
35079,,Glad h.,,46.71056366,21.684358597,,,0,,,0
35110,,Utvinişu Nou,,46.238891602,21.354589462,,,0,,,0
35122,,Utviniş h.,,46.266700745,21.363796234,,,0,,,0
35146,,Zimandu Nou h.,,46.282802582,21.396211624,,,0,,,0
35184,,Sântana,,46.333499908,21.495986938,,,0,,,0
35201,,Comlăuş h.,,46.360355377,21.520189285,,,0,,,0
35213,,Şimand Hm.,,46.423439026,21.471559525,,,0,,,0
35249,,Nădab,,46.486053467,21.501621246,,,0,,,0
35263,,Chişineu Criş,,46.524108887,21.531311035,,,0,,,0
35287,,Zerind Hm.,,46.593570709,21.54523468,,,0,,,0
35299,,Tămaşda h.,,46.656864166,21.554153442,,,0,,,0
35316,,Boiu Bihor h.,,46.692752838,21.586093903,,,0,,,0
35330,,Ciumeghiu Hm.,,46.725250244,21.59513092,,,0,,,0
35407,,Salonta,,46.809452057,21.642318726,,,0,,,0
35421,,Mădăraş Bihor h.,,46.833389282,21.664970398,,,0,,,0
35433,,Cefa Hm.,,46.903888702,21.731983185,,,0,,,0
35469,,Leş Bihor Hm.,,46.980602264,21.807991028,,,0,,,0
35536,,Şiria Hm.,,46.283344269,21.636459351,,,0,,,0
35548,,Mâsca Măderat h.,,46.299255371,21.665607452,,,0,,,0
35562,,Pâncota h.,,46.321777344,21.678548813,,,0,,,0
35574,,Seleuş h.,,46.344219208,21.700019836,,,0,,,0
35598,,Târnova Zărand Hm.,,46.339824677,21.791439056,,,0,,,0
35615,,Mocrea h.,,46.389072418,21.810066223,,,0,,,0
35639,,Ineu,,46.421257019,21.828409195,,,0,,,0
35641,,Teuz h.,,46.512184143,21.862453461,,,0,,,0
35665,,Tămand h.,,46.443943024,21.91787529,,,0,,,0
35689,,Bocsig  h,,46.438919067,21.965488434,,,0,,,0
35691,,Răpsig h.,,46.422546387,22.025659561,,,0,,,0
35720,,Sebiş,,46.365390778,22.126029968,,,0,,,0
35744,,Paulian h.,,46.32901001,22.156829834,,,0,,,0
35768,,Joia Mare hc.,,46.302570343,22.180820465,,,0,,,0
35782,,Almaş h.,,46.296020508,22.247879028,,,0,,,0
35809,,Bonţeşti h.,,46.280010223,22.309448242,,,0,,,0
35823,,Gurahonţ,,46.273952484,22.343454361,,,0,,,0
35847,,Romaniţa h.,,46.291606903,22.402839661,,,0,,,0
35859,,Aciuţa h.,,46.294284821,22.433708191,,,0,,,0
35885,,Tălagiu h.,,46.277488708,22.480028152,,,0,,,0
35897,,Vârfurile Hm.,,46.291614532,22.520528793,,,0,,,0
35914,,Cariera Leasa h.,,46.266601562,22.539382935,,,0,,,0
35926,,Hălmagiu Hm.,,46.25428772,22.568490982,,,0,,,0
35938,,Ocişor h.,,46.222320557,22.559772491,,,0,,,0
35940,,Ociu h.,,46.209690094,22.571908951,,,0,,,0
35952,,Vaţa h.,,46.184093475,22.599742889,,,0,,,0
35964,,Birtin h.,,46.176681519,22.638053894,,,0,,,0
35976,,Lunca Moţilor h.,,46.180286407,22.681358337,,,0,,,0
35988,,Baia de Criş h.,,46.179721832,22.711845398,,,0,,,0
36009,,Ţebea h,,46.171302795,22.736589432,,,0,,,0
36114,,Ribiţa h.,,46.163764954,22.763414383,,,0,,,0
36126,,Brad,,46.136768341,22.782697678,,,0,,,0
36322,,Cermei hcv,,46.541007996,21.847545624,,,0,,,0
36504,,Dobrei hcv.,,45.101547241,21.771661758,,,0,,,0
36798,,Dep Petroşani h.,,45.432460785,23.360237122,,,0,,,0
36815,,Ronaţ Triaj Cab 1 h,,45.770942688,21.175556183,,,0,,,0
36853,,Canton Nr. 9 h.,,46.169914246,20.990558624,,,0,,,0
40024,,Hărman,,45.697811127,25.686208725,,,0,,,0
40036,,Ilieni h.,,45.726570129,25.762695312,,,0,,,0
40050,,Prejmer Hm.,,45.738918304,25.777618408,,,0,,,0
40074,,Chichiş h.,,45.771442413,25.804935455,,,0,,,0
40103,,Ozun Hm.,,45.799915314,25.840072632,,,0,,,0
40139,,Sfântu Gheorghe,,45.866855621,25.811067581,,,0,,,0
40165,,Arcuş h.,,45.906124115,25.825162888,,,0,,,0
40177,,Bodoc Hm.,,45.944644928,25.843290329,,,0,,,0
40191,,Malnaş h.,,46.001926422,25.840984344,,,0,,,0
40206,,Malnaş Băi,,46.035137177,25.825464249,,,0,,,0
40220,,Bicsadu Oltului Hm.,,46.100151062,25.846860886,,,0,,,0
40256,,Băile Tuşnad Hm.,,46.151248932,25.860059738,,,0,,,0
40270,,Tuşnad Sat,,46.190303802,25.893346786,,,0,,,0
40294,,Vrabia h.,,46.216892242,25.88902092,,,0,,,0
40311,,Sânsimion Hm.,,46.266036987,25.885063171,,,0,,,0
40335,,Sântimbru Ciuc h.,,46.28786087,25.874483109,,,0,,,0
40347,,Sâncrăieni Hm.,,46.310657501,25.857276917,,,0,,,0
40373,,Miercurea Ciuc,,46.359767914,25.794200897,,,0,,,0
40402,,Siculeni,,46.431236267,25.774124146,,,0,,,0
40414,,Racu h.,,46.446563721,25.756593704,,,0,,,0
40464,,Mădăraş Ciuc Hm.,,46.488639832,25.742015839,,,0,,,0
40476,,Dăneşti h.,,46.511016846,25.750841141,,,0,,,0
40488,,Cârţani h.,,46.532588959,25.767644882,,,0,,,0
40490,,Izvoru Oltului,,46.568191528,25.796064377,,,0,,,0
40505,,Tomeşti h.,,46.548194885,25.780761719,,,0,,,0
40517,,Izvoru Mureşului Hm.,,46.626861572,25.715969086,,,0,,,0
40529,,Sândominic h.,,46.601177216,25.751924515,,,0,,,0
40531,,Voşlăbeni Hm.,,46.62713623,25.64176178,,,0,,,0
40555,,Valea Strâmbă h.,,46.689277649,25.58612442,,,0,,,0
40567,,Şugău h.,,46.645397186,25.617765427,,,0,,,0
40579,,Gheorgheni,,46.71880722,25.573648453,,,0,,,0
40593,,Lăzarea Hm.,,46.742290497,25.528949738,,,0,,,0
40610,,Ditrău,,46.79731369,25.47590065,,,0,,,0
40634,,Subcetate Mureş Hm.,,46.862766266,25.440376282,,,0,,,0
40646,,Sărmaş Runc h.,,46.885810852,25.439815521,,,0,,,0
40658,,Gălăuţaş Hm.,,46.911476135,25.405862808,,,0,,,0
40684,,Topliţa,,46.924015045,25.342975616,,,0,,,0
40696,,Ciobotani h.,,46.950534821,25.266204834,,,0,,,0
40701,,Stânceni Hm.,,46.954566956,25.240404129,,,0,,,0
40713,,Stânceni h.,,46.966472626,25.191949844,,,0,,,0
40725,,Stânceni Neagra h.,,46.966510773,25.154218674,,,0,,,0
40749,,Lunca Bradului Hm.,,46.955223083,25.10307312,,,0,,,0
40763,,Andreneasa h.,,46.960113525,25.031229019,,,0,,,0
40787,,Răstoliţa Hm.,,46.971843719,24.969026566,,,0,,,0
40799,,Borzia h.,,46.970470428,24.933015823,,,0,,,0
40804,,Deda Bistra Hm.,,46.960540771,24.908191681,,,0,,,0
40830,,Deda,,46.941425323,24.865755081,,,0,,,0
40866,,Morăreni h.,,46.924922943,24.823339462,,,0,,,0
40878,,Râpa de Jos Hm.,,46.923168182,24.781639099,,,0,,,0
40892,,Monor Gledin,,46.9610672,24.703941345,,,0,,,0
40907,,Şieuţ h.,,46.978637695,24.645978928,,,0,,,0
40921,,Şieu Hm.,,47.004516602,24.604803085,,,0,,,0
40933,,Bârla pe Şieu h.,,47.015003204,24.529680252,,,0,,,0
40945,,Mărişelu Hm.,,47.019004822,24.499429703,,,0,,,0
40957,,Domneşti pe Şieu h.,,47.037425995,24.48028183,,,0,,,0
40971,,Sărăţel Hm.,,47.060745239,24.403619766,,,0,,,0
40983,,Arcalia hc.,,47.089565277,24.37046051,,,0,,,0
40995,,Măgheruş Şieu Hm.,,47.101882935,24.352832794,,,0,,,0
41016,,Sfântu h.,,47.131122589,24.303535461,,,0,,,0
41028,,Caila hc.,,47.149196625,24.288742065,,,0,,,0
41030,,Şintereag Hm.,,47.177158356,24.270494461,,,0,,,0
41054,,Beclean pe Someş,,47.177536011,24.182590485,,,0,,,0
41078,,Coldău Hm.,,47.181480408,24.119655609,,,0,,,0
41080,,Ciceu Cristur h.,,47.190757751,24.089637756,,,0,,,0
41092,,Reteag h.,,47.194812775,24.06354332,,,0,,,0
41107,,Reteag Hm.,,47.187870026,24.023357391,,,0,,,0
41119,,Ciceu Mihăeşti h.,,47.173339844,23.970493317,,,0,,,0
41145,,Dej Triaj,,47.156745911,23.913040161,,,0,,,0
41195,,Dej Călători,,47.142601013,23.894786835,,,0,,,0
41200,,C. C. H. Dej h.,,47.149448395,23.883752823,,,0,,,0
41224,,Căşeiu Hm.,,47.188217163,23.851644516,,,0,,,0
41236,,Coplean h.,,47.200027466,23.824661255,,,0,,,0
41248,,Câţcău h.,,47.212661743,23.776985168,,,0,,,0
41262,,Căpâlna pe Someş h.,,47.245880127,23.743886948,,,0,,,0
41274,,Gâlgău h.,,47.268196106,23.6687603,,,0,,,0
41286,,Gâlgău,,47.280040741,23.69667244,,,0,,,0
41298,,Glodu Someşului h.,,47.280860901,23.645938873,,,0,,,0
41315,,Rus h.,,47.284610748,23.592721939,,,0,,,0
41327,,Ileanda,,47.326450348,23.608915329,,,0,,,0
41341,,Bizuşa h.,,47.342212677,23.603225708,,,0,,,0
41365,,Răstoci Hm.,,47.354690552,23.541749954,,,0,,,0
41377,,Letca Hm.,,47.338043213,23.465509415,,,0,,,0
41389,,Cuciulat Hm.,,47.318943024,23.413467407,,,0,,,0
41391,,Băbuţeni Hm.,,47.296924591,23.393672943,,,0,,,0
41406,,Ciocmani h.,,47.285663605,23.359262466,,,0,,,0
41418,,Surduc Sălaj Hm.,,47.248657227,23.339492798,,,0,,,0
41420,,Var h.,,47.237815857,23.299642563,,,0,,,0
41444,,Jibou,,47.25019455,23.265277863,,,0,,,0
41468,,Someş Odorhei Hm.,,47.331752777,23.270021439,,,0,,,0
41470,,Inău h.,,47.362594604,23.271141052,,,0,,,0
41482,,Aluniş Sălaj h.,,47.384456635,23.279230118,,,0,,,0
41494,,Benesat Hm.,,47.406978607,23.291532516,,,0,,,0
41511,,Ţicău h.,,47.444431305,23.303302765,,,0,,,0
41523,,Ulmeni Sălaj,,47.462303162,23.299232483,,,0,,,0
41547,,Mireşu Mare PM.,,47.499385834,23.341524124,,,0,,,0
41561,,Fersig h.,,47.548030853,23.380548477,,,0,,,0
41573,,Satulung pe Someş Hm.,,47.57730484,23.416030884,,,0,,,0
41638,,Baia Mare,,47.646987915,23.55213356,,,0,,,0
41767,,Buşag Hm.,,47.664665222,23.428243637,,,0,,,0
41779,,Cicârlău h.,,47.687782288,23.398557663,,,0,,,0
41793,,Ilba h.,,47.71472168,23.346813202,,,0,,,0
41808,,Săbişa h.,,47.726215363,23.325283051,,,0,,,0
41822,,Seini,,47.738113403,23.284423828,,,0,,,0
41846,,Apa Hm.,,47.768169403,23.187795639,,,0,,,0
41860,,Medieşu Aurit Hm.,,47.775184631,23.120285034,,,0,,,0
41884,,Odoreu h.,,47.800933838,22.993894577,,,0,,,0
42125,,Angheluş h.,,45.86479187,25.88766861,,,0,,,0
42137,,Moacşa Hm.,,45.857646942,25.939165115,,,0,,,0
42149,,Biţa h.,,45.841365814,25.972703934,,,0,,,0
42151,,Boroşneu Mare h.,,45.825580597,26.010904312,,,0,,,0
42163,,Ţufalău h.,,45.834629059,26.035430908,,,0,,,0
42175,,Brateş h.,,45.84305191,26.071819305,,,0,,,0
42199,,Covasna Hm.,,45.858665466,26.147623062,,,0,,,0
42216,,Zăbala h.,,45.891662598,26.16311264,,,0,,,0
42230,,Imeci Hm.,,45.940422058,26.157928467,,,0,,,0
42242,,Cătălina h.,,45.955394745,26.151311874,,,0,,,0
42266,,Târgu Secuiesc,,45.991832733,26.137619019,,,0,,,0
42280,,Sânzieni h.,,46.045734406,26.144657135,,,0,,,0
42292,,Poieniţa h.,,46.06199646,26.167537689,,,0,,,0
42307,,Bălani h.,,46.078800201,26.189319611,,,0,,,0
42319,,Mereni Lutoasa h.,,46.072917938,26.230636597,,,0,,,0
42321,,Lemnia h.,,46.056510925,26.257183075,,,0,,,0
42333,,Breţcu Hm.,,46.046012878,26.295434952,,,0,,,0
42400,,Ruşii Munţi h.,,46.916172028,24.845636368,,,0,,,0
42412,,Aluniş Mureş Hm.,,46.900371552,24.824548721,,,0,,,0
42424,,Halta Aluniş h.,,46.871444702,24.791477203,,,0,,,0
42436,,Brâncoveneşti h.,,46.853462219,24.769617081,,,0,,,0
42448,,Ideciu de Jos h.,,46.817203522,24.759679794,,,0,,,0
42474,,Reghin,,46.780609131,24.719148636,,,0,,,0
42503,,Petelea h.,,46.739982605,24.713821411,,,0,,,0
42527,,Periş Mureş h.,,46.70173645,24.672172546,,,0,,,0
42539,,Gorneşti Mureş h.,,46.671730042,24.656209946,,,0,,,0
42541,,Dumbrăvioara Hm.,,46.641960144,24.640249252,,,0,,,0
42577,,Târgu Mureş Nord Hm.,,46.553955078,24.562635422,,,0,,,0
42606,,Târgu Mureş,,46.533821106,24.54914093,,,0,,,0
42620,,Azomureş h.,,46.526451111,24.536203384,,,0,,,0
42644,,Târgu Mureş Sud,,46.505935669,24.495542526,,,0,,,0
42670,,G-ral N. Dăscălescu Hm.,,46.490947723,24.462392807,,,0,,,0
42694,,Vidrasău h.,,46.472564697,24.414228439,,,0,,,0
42709,,Chirileu h.,,46.465194702,24.376661301,,,0,,,0
42711,,Sânpaul Hm.,,46.44776535,24.340070724,,,0,,,0
42723,,Ogra h.,,46.443145752,24.319389343,,,0,,,0
42735,,Cipău h.,,46.434429169,24.272943497,,,0,,,0
42747,,Iernut,,46.440551758,24.223466873,,,0,,,0
42761,,Cuci h.,,46.460456848,24.163351059,,,0,,,0
42785,,Bogata Mureş h.,,46.462238312,24.117958069,,,0,,,0
42814,,Luduş,,46.467090607,24.088253021,,,0,,,0
42840,,Cheţani h.,,46.464679718,24.018299103,,,0,,,0
42852,,Gligoreşti Hm.,,46.441944122,23.996265411,,,0,,,0
42864,,Gura Arieşului h.,,46.427196503,23.955699921,,,0,,,0
42876,,Lunca Mureşului h.,,46.418670654,23.918453217,,,0,,,0
42929,,Sărata h.,,47.0807724,24.428987503,,,0,,,0
42943,,Viişoara h.,,47.101730347,24.45267868,,,0,,,0
42955,,Bistriţa h.,,47.145450592,24.501747131,,,0,,,0
42967,,Bistriţa Nord,,47.133052826,24.484552383,,,0,,,0
42981,,Livezile Bârgăului hc.,,47.179252625,24.562128067,,,0,,,0
42993,,Rusul Bârgăului hc.,,47.201576233,24.636196136,,,0,,,0
43026,,Susenii Bârgăului Hm.,,47.217586517,24.715507507,,,0,,,0
43040,,Josenii Bârgăului hc.,,47.214775085,24.669509888,,,0,,,0
43052,,Bistriţa Bârgăului hcv.,,47.182739258,24.805744171,,,0,,,0
43064,,Mijlocenii Bârgăului h.,,47.217353821,24.690792084,,,0,,,0
43076,,Bistriţa Bârgăului Sat hc.,,47.209625244,24.760440826,,,0,,,0
43088,,Prundul Bârgaului hc.,,47.218063354,24.741443634,,,0,,,0
43090,,Bistriţa Bârgăului h.,,47.199932098,24.783657074,,,0,,,0
43105,,Bârgău h.,,47.215583801,24.750303268,,,0,,,0
43117,,Chintelnic h.,,47.104061127,24.327613831,,,0,,,0
43129,,Chiraleş h.,,47.085250854,24.314664841,,,0,,,0
43131,,Ţigău h.,,47.058235168,24.324104309,,,0,,,0
43143,,Lechinţa,,47.018234253,24.335931778,,,0,,,0
43155,,Vermeş h.,,47.002052307,24.31974411,,,0,,,0
43167,,Brăteni h.,,46.929294586,24.371944427,,,0,,,0
43179,,Sângiorgiu Nou h.,,46.964481354,24.36397934,,,0,,,0
43181,,Sânmihaiu de Câmpie h.,,46.893890381,24.339452744,,,0,,,0
43193,,Miceştii de Câmpie h.,,46.869804382,24.310213089,,,0,,,0
43208,,Budeşti Cluj h.,,46.865989685,24.262695312,,,0,,,0
43210,,Ţagu h.,,46.841377258,24.237068176,,,0,,,0
43222,,Ţagu Sat h.,,46.82006073,24.22690773,,,0,,,0
43246,,Sărmaşel hcv.,,46.780639648,24.204273224,,,0,,,0
43258,,Sărmăşel Gaz Metan h.,,46.753299713,24.157911301,,,0,,,0
43260,,Sărmaşu h.,,46.748786926,24.151239395,,,0,,,0
43272,,Balda h.,,46.73065567,24.147060394,,,0,,,0
43296,,Bota Sat h.,,46.632987976,24.134506226,,,0,,,0
43301,,Miheşu de Câmpie Sat h.,,46.680492401,24.161977768,,,0,,,0
43313,,Miheşu de Câmpie h.,,46.639518738,24.144161224,,,0,,,0
43325,,Zau de Câmpie h.,,46.61328125,24.125026703,,,0,,,0
43337,,Tăureni h.,,46.582950592,24.092468262,,,0,,,0
43349,,Melini Valea Largă h.,,46.601581573,24.120996475,,,0,,,0
43351,,Sânger Tăureni h.,,46.549156189,24.122190475,,,0,,,0
43375,,Luduş Sat hc.,,46.484611511,24.100793839,,,0,,,0
43416,,Cociu h.,,47.197330475,24.231784821,,,0,,,0
43428,,Mogoşeni Hm.,,47.208351135,24.25094223,,,0,,,0
43430,,Nimigea h.,,47.236026764,24.282798767,,,0,,,0
43442,,Nimigea Hm.,,47.247962952,24.299970627,,,0,,,0
43454,,Mititei h.,,47.281772614,24.318870544,,,0,,,0
43466,,Salva,,47.30210495,24.340671539,,,0,,,0
43480,,Coşbuc Hm.,,47.373882294,24.391338348,,,0,,,0
43492,,Bichigiu h.,,47.399246216,24.383922577,,,0,,,0
43507,,Telciu Hm.,,47.421459198,24.394931793,,,0,,,0
43519,,Fiad Hm.,,47.494621277,24.390611649,,,0,,,0
43521,,Romuli h.,,47.540149689,24.435388565,,,0,,,0
43533,,Fiezel h.,,47.46213913,24.38902092,,,0,,,0
43545,,Dealu Ştefăniţei,,47.577415466,24.41519928,,,0,,,0
43571,,Săcel Hm.,,47.633083344,24.461679459,,,0,,,0
43595,,Iza P.M.,,47.657535553,24.378078461,,,0,,,0
43612,,Vişeu de Jos,,47.661579132,24.374475479,,,0,,,0
43624,,Bocicoel h.,,47.731868744,24.33483696,,,0,,,0
43636,,Leordina h.,,47.765701294,24.285839081,,,0,,,0
43648,,Leordina Hm.,,47.7849617,24.260036469,,,0,,,0
43662,,Petrova hc.,,47.82894516,24.211044312,,,0,,,0
43686,,Vişeu Bistra h.,,47.864196777,24.191886902,,,0,,,0
43703,,Valea Vişeului,,47.914699554,24.154588699,,,0,,,0
43741,,Lunca la Tisa h.,,47.949008942,24.043701172,,,0,,,0
43753,,Bocicoi  Hm.,,47.957393646,24.023519516,,,0,,,0
43789,,Crăciuneşti h.,,47.950862885,23.985366821,,,0,,,0
43791,,Tisa h.,,47.939926147,23.950654984,,,0,,,0
43806,,Cămara Sighet Hm.,,47.942882538,23.909355164,,,0,,,0
43820,,Sighetu Marmaţiei,,47.935520172,23.885951996,,,0,,,0
43997,,Jucu de Jos hc.,,46.877941132,23.773948669,,,0,,,0
44018,,Apahida h.,,46.814586639,23.758005142,,,0,,,0
44020,,Jucu Hm.,,46.862667084,23.763980865,,,0,,,0
44032,,Răscruci h.,,46.900608063,23.779748917,,,0,,,0
44044,,Bonţida Hm.,,46.925182343,23.784959793,,,0,,,0
44056,,Fundătura h.,,46.950401306,23.796928406,,,0,,,0
44068,,Iclod Hm.,,46.978302002,23.816051483,,,0,,,0
44070,,Livada Someş h.,,47.005531311,23.84331131,,,0,,,0
44094,,Gherla,,47.027626038,23.913299561,,,0,,,0
44111,,Buneşti h.,,47.074901581,23.912887573,,,0,,,0
44123,,Nima h.,,47.093097687,23.90663147,,,0,,,0
44173,,Cuceu Sălaj h.,,47.254230499,23.20126915,,,0,,,0
44185,,Poptelec h.,,47.250591278,23.169916153,,,0,,,0
44197,,Mirşid Hm.,,47.231327057,23.115531921,,,0,,,0
44240,,Zalău Nord,,47.221035004,23.040903091,,,0,,,0
44276,,Guruslău h.,,47.255882263,22.977624893,,,0,,,0
44288,,Borla Hm.,,47.274894714,22.943422318,,,0,,,0
44290,,Bocşa Sălaj h.,,47.299045563,22.92638588,,,0,,,0
44305,,Câmpia Sălaj h.,,47.319122314,22.898033142,,,0,,,0
44329,,Sărmăşag,,47.342601776,22.829099655,,,0,,,0
44343,,Sărmăşag h.,,47.367176056,22.80727005,,,0,,,0
44355,,Derşida h.,,47.38470459,22.791236877,,,0,,,0
44367,,Supur h.,,47.452602386,22.785867691,,,0,,,0
44379,,Supur Haltă hc.,,47.465652466,22.794399261,,,0,,,0
44381,,Giorocuţa h.,,47.433612823,22.777570724,,,0,,,0
44408,,Acâş Hm.,,47.52696228,22.776239395,,,0,,,0
44434,,Săcăşeni h.,,47.513401031,22.646158218,,,0,,,0
44458,,Tăşnad,,47.495670319,22.578092575,,,0,,,0
44472,,Santău h.,,47.51543808,22.517244339,,,0,,,0
44484,,Hotoan h.,,47.557582855,22.503036499,,,0,,,0
44496,,Tiream h.,,47.607067108,22.4839077,,,0,,,0
44525,,Giurtelec hc.,,47.298782349,22.783973694,,,0,,,0
44537,,Uilacu Şimleului hc.,,47.27722168,22.758924484,,,0,,,0
44563,,Şimleu Silvaniei,,47.250411987,22.770008087,,,0,,,0
44575,,Măgura Şimleului hc.,,47.234119415,22.784042358,,,0,,,0
44587,,Nuşfalău h.,,47.214511871,22.692951202,,,0,,,0
44604,,Ipu h.,,47.220569611,22.608757019,,,0,,,0
44616,,Porţi hc.,,47.229045868,22.552936554,,,0,,,0
44628,,Suplacu de Barcău,,47.261810303,22.54834938,,,0,,,0
44630,,Balc hc.,,47.2967453,22.524860382,,,0,,,0
44654,,Sădălbagiu hc.,,47.304828644,22.460155487,,,0,,,0
44666,,Marginea Bihor h.,,47.303043365,22.418054581,,,0,,,0
44678,,Abrami h.,,47.314411163,22.380113602,,,0,,,0
44680,,Chiribiş hc.,,47.32226944,22.342824936,,,0,,,0
44692,,Horea h.,,47.324558258,22.335987091,,,0,,,0
44707,,Marghita,,47.339828491,22.328199387,,,0,,,0
44721,,Petreu hc.,,47.33372879,22.295553207,,,0,,,0
44733,,Abrămuţ hc.,,47.321025848,22.255912781,,,0,,,0
44745,,Făncica h.,,47.323757172,22.243247986,,,0,,,0
44757,,Bolcaş hc.,,47.352905273,22.232627869,,,0,,,0
44771,,Târguşor Bihor h.,,47.375629425,22.169031143,,,0,,,0
44989,,Biharia Hm.,,47.155948639,21.912313461,,,0,,,0
45000,,Tămăşeu h.,,47.220405579,21.91327095,,,0,,,0
45024,,Roşiori Bihor h.,,47.263893127,21.944572449,,,0,,,0
45048,,Diosig Hm.,,47.297367096,22.012338638,,,0,,,0
45062,,Cadia h.,,47.326221466,22.065231323,,,0,,,0
45086,,Săcuieni Bihor,,47.36025238,22.077880859,,,0,,,0
45098,,Săcuieni Bihor h.,,47.357967377,22.081838608,,,0,,,0
45103,,Şilindru Hm.,,47.435813904,22.047895432,,,0,,,0
45127,,Simion h.,,47.48418808,22.09021759,,,0,,,0
45153,,Valea lui Mihai,,47.527656555,22.132772446,,,0,,,0
45232,,Curtuiuşeni h.,,47.5583992,22.20110321,,,0,,,0
45256,,Resighea h.,,47.60092926,22.284442902,,,0,,,0
45270,,Sanislău Hm.,,47.631996155,22.337640762,,,0,,,0
45294,,Marna h.,,47.661865234,22.387882233,,,0,,,0
45323,,Carei,,47.696865082,22.460132599,,,0,,,0
45359,,Domăneşti h.,,47.697635651,22.593204498,,,0,,,0
45361,,Moftin h.,,47.697822571,22.643636703,,,0,,,0
45373,,Gen. Gh. Avramescu Hm.,,47.700302124,22.679229736,,,0,,,0
45397,,Sătmărel h.,,47.74263382,22.796876907,,,0,,,0
45438,,Satu Mare Sud,,47.772064209,22.870140076,,,0,,,0
45452,,Satu Mare,,47.796291351,22.8945961,,,0,,,0
45464,,Ram. Botiz h.,,47.836513519,22.921237946,,,0,,,0
45488,,Micula Hm.,,47.900726318,22.96213913,,,0,,,0
45505,,Porumbeşti Hm.,,47.965614319,22.991113663,,,0,,,0
45531,,Halmeu,,47.983013153,22.996934891,,,0,,,0
47319,,Botiz Hm.,,47.825862885,22.945539474,,,0,,,0
47668,,Clujana h.,,46.784385681,23.625076294,,,0,,,0
48014,,Bistriţa Fabrici h.,,47.12707901,24.476623535,,,0,,,0
48076,,Năsăud h.,,47.28988266,24.386779785,,,0,,,0
50017,,Ploieşti Sud,,44.925102234,26.029636383,,,0,,,0
50079,,Ploieşti Est,,44.936344147,26.080373764,,,0,,,0
50122,,Valea Calugareasca Hm,,44.952014923,26.166227341,,,0,,,0
50158,,Muru hc.,,44.947250366,26.206964493,,,0,,,0
50160,,Cricov Hm.,,44.944393158,26.236560822,,,0,,,0
50172,,Tomşani hc.,,44.956249237,26.294277191,,,0,,,0
50184,,Inoteşti Hm.,,44.971672058,26.349161148,,,0,,,0
50213,,Mizil,,44.994510651,26.438140869,,,0,,,0
50237,,Săhăteni Hm.,,45.029899597,26.517450333,,,0,,,0
50251,,Clondiru hc.,,45.063114166,26.603515625,,,0,,,0
50263,,Ulmeni,,45.081378937,26.651012421,,,0,,,0
50287,,Băile Sarata Monteoru hcv.,,45.102344513,26.706195831,,,0,,,0
50342,,Buzău,,45.141998291,26.821584702,,,0,,,0
50392,,Boboc Hm.,,45.208877563,26.929052353,,,0,,,0
50419,,Zoita Hm.,,45.285648346,27.01199913,,,0,,,0
50433,,Râmnicu Sărat,,45.379642487,27.058151245,,,0,,,0
50471,,Voetin h.,,45.442382812,27.095901489,,,0,,,0
50495,,Sihlea Hm.,,45.503879547,27.112976074,,,0,,,0
50512,,Gugeşti,,45.566963196,27.131113052,,,0,,,0
50548,,Coteşti Hm.,,45.63199234,27.14985466,,,0,,,0
50603,,Focşani,,45.701732635,27.169439316,,,0,,,0
50653,,Putna Seacă Hm.,,45.805774689,27.197332382,,,0,,,0
50691,,Mărăşeşti,,45.876861572,27.215047836,,,0,,,0
50732,,Pădureni Putna Hm.,,45.931606293,27.216028214,,,0,,,0
50744,,Călimăneşti Vrancea h.,,45.960540771,27.210561752,,,0,,,0
50768,,Pufeşti Hm.,,46.005626678,27.200759888,,,0,,,0
50770,,Domneşti Târg h.,,46.027877808,27.191665649,,,0,,,0
50811,,Adjud,,46.100471497,27.190994263,,,0,,,0
50885,,Adjudu Vechi h.,,46.132160187,27.16894722,,,0,,,0
50902,,Şişcani h.,,46.155330658,27.153110504,,,0,,,0
50926,,Sascut Hm.,,46.208011627,27.108951569,,,0,,,0
50940,,Orbeni Hm.,,46.278526306,27.057146072,,,0,,,0
50964,,Răcăciuni h.,,46.331573486,27.011915207,,,0,,,0
50988,,Faraoani Hm.,,46.395160675,26.9656353,,,0,,,0
51009,,Siretu Bacău h.,,46.443454742,26.93434906,,,0,,,0
51011,,Valea Seacă,,46.476356506,26.935277939,,,0,,,0
51035,,Letea h.,,46.521362305,26.934703827,,,0,,,0
51059,,Bacău,,46.566215515,26.894786835,,,0,,,0
51097,,Iteşti Hm.,,46.668590546,26.897022247,,,0,,,0
51102,,Şerbeşti Bacău h.,,46.696647644,26.887680054,,,0,,,0
51126,,Galbeni,,46.74792099,26.882259369,,,0,,,0
51140,,Săcueni Roman Hm.,,46.846870422,26.880050659,,,0,,,0
51152,,Ram. Trifeşti,,46.879367828,26.89847374,,,0,,,0
51190,,Roman,,46.935112,26.919780731,,,0,,,0
51231,,Săbăoani Hm.,,47.003860474,26.886865616,,,0,,,0
51255,,Mirceşti,,47.059867859,26.843858719,,,0,,,0
51267,,Hălăuceşti hc.,,47.094276428,26.818658829,,,0,,,0
51281,,Mogoşeşti hc.,,47.131053925,26.773281097,,,0,,,0
51293,,Muncel Hm.,,47.165920258,26.747795105,,,0,,,0
51308,,Stolniceni h.,,47.200527191,26.749923706,,,0,,,0
51346,,Paşcani Triaj,,47.241466522,26.733673096,,,0,,,0
51358,,Paşcani,,47.257427216,26.724014282,,,0,,,0
51401,,Lunca Siretului h.,,47.306552887,26.694656372,,,0,,,0
51413,,Lespezi Hm.,,47.347255707,26.671773911,,,0,,,0
51437,,Probota h.,,47.387710571,26.641775131,,,0,,,0
51451,,Dolhasca,,47.426567078,26.608886719,,,0,,,0
51475,,Corni h.,,47.474815369,26.565307617,,,0,,,0
51499,,Liteni Hm.,,47.515094757,26.536294937,,,0,,,0
51516,,Băneşti Suceava hc.,,47.568443298,26.503595352,,,0,,,0
51530,,Vereşti,,47.607784271,26.44103241,,,0,,,0
51554,,Văratec Hm.,,47.631412506,26.359020233,,,0,,,0
51607,,Suceava,,47.667907715,26.274650574,,,0,,,0
51645,,Suceava Nord,,47.676376343,26.239332199,,,0,,,0
51671,,Dărmăneşti,,47.711891174,26.142459869,,,0,,,0
51700,,Milişăuţi Hm.,,47.772125244,26.052885056,,,0,,,0
51724,,Ţibeni h.,,47.82144928,26.02589035,,,0,,,0
51750,,Dorneşti,,47.871562958,25.999099731,,,0,,,0
51798,,Vicşani,,47.941604614,25.967607498,,,0,,,0
51920,,Ploiesti Est Post 1,,44.925819397,26.03260994,,,0,,,0
51932,,Ploieşti Nord,,44.955619812,26.022342682,,,0,,,0
51968,,Blejoi,,44.985141754,26.015262604,,,0,,,0
51982,,Scăieni h.,,45.016269684,26.025854111,,,0,,,0
52003,,Boldeşti hc.,,45.029361725,26.0240345,,,0,,,0
52015,,Lipăneşti hc.,,45.05398941,26.023626328,,,0,,,0
52027,,Măgurele Sud h.,,45.08297348,26.033956528,,,0,,,0
52039,,Măgurele Prahova h.,,45.098003387,26.044525146,,,0,,,0
52041,,Făget Teleajen,,45.13892746,26.027673721,,,0,,,0
52053,,PO Gura Vitioarei h.,,45.151424408,26.026884079,,,0,,,0
52077,,Vălenii de Munte,,45.179611206,26.034324646,,,0,,,0
52106,,P.mac. Văleni Nord,,45.208946228,26.039333344,,,0,,,0
52118,,Teişani Hm.,,45.236431122,26.024679184,,,0,,,0
52120,,Homorâciu P.M.,,45.267982483,26.016252518,,,0,,,0
52132,,Izvoarele hc.,,45.2811203,26.002185822,,,0,,,0
52144,,Măneciu Pamânteni hc.,,45.298839569,25.996479034,,,0,,,0
52156,,Măneciu,,45.319282532,25.997911453,,,0,,,0
52170,,Măgurele Nord h.,,45.125579834,26.035356522,,,0,,,0
52259,,Buzău Nord Hm.,,45.167366028,26.772558212,,,0,,,0
52261,,Verneşti h.,,45.204677582,26.732040405,,,0,,,0
52273,,Cândeşti hc.,,45.244731903,26.715490341,,,0,,,0
52297,,Berca Hm.,,45.278141022,26.675210953,,,0,,,0
52314,,Ojasca h.,,45.280387878,26.65019989,,,0,,,0
52338,,Unguriu hc.,,45.283187866,26.6191082,,,0,,,0
52340,,Măgura hcv.,,45.281070709,26.580774307,,,0,,,0
52364,,Pârscov,,45.27911377,26.551639557,,,0,,,0
52376,,Bădila h.,,45.257415771,26.509449005,,,0,,,0
52390,,Ruşavăţu hc.,,45.241542816,26.490795135,,,0,,,0
52405,,Vipereşti hc.,,45.231208801,26.45406723,,,0,,,0
52431,,Cislău hcv.,,45.246677399,26.377693176,,,0,,,0
52443,,Gura Bascii h.,,45.26291275,26.362016678,,,0,,,0
52455,,Mărunţişu hcv.,,45.291809082,26.362264633,,,0,,,0
52467,,Valea Seacă h.,,45.274330139,26.358478546,,,0,,,0
52479,,Pătârlagele Hm.,,45.324741364,26.358282089,,,0,,,0
52481,,Valea Sibiciului h.,,45.350334167,26.348110199,,,0,,,0
52508,,Şeţu h.,,45.381320953,26.32305336,,,0,,,0
52510,,Păltineni h.,,45.399375916,26.319900513,,,0,,,0
52522,,Nehoiu h.,,45.418434143,26.307029724,,,0,,,0
52546,,Nehoiaşu,,45.431224823,26.306150436,,,0,,,0
52857,,Urecheşti Hm.,,46.131816864,27.090755463,,,0,,,0
52869,,Cornăţel Moldova h.,,46.13236618,27.044870377,,,0,,,0
52883,,Bâlca hc.,,46.156604767,26.989143372,,,0,,,0
52900,,Căiuţi Hm.,,46.186576843,26.929748535,,,0,,,0
52948,,Borzeşti Bacău,,46.221534729,26.856258392,,,0,,,0
52986,,Borzeşti Bacău h.,,46.243991852,26.81668663,,,0,,,0
53007,,Oneşti,,46.259349823,26.77803421,,,0,,,0
53033,,Trotuş h.,,46.269908905,26.706090927,,,0,,,0
53045,,Viişoara h,,46.274963379,26.670272827,,,0,,,0
53069,,Târgu Ocna Hm.,,46.279224396,26.626348495,,,0,,,0
53071,,Saline hc.,,46.282642365,26.606550217,,,0,,,0
53083,,Cireşoaia h.,,46.295448303,26.562379837,,,0,,,0
53095,,Dofteana Bacău Hm.,,46.33108139,26.534187317,,,0,,,0
53124,,Valea Uzului Haltă h.,,46.370910645,26.50069046,,,0,,,0
53150,,Valea Uzului Hm.,,46.380348206,26.492769241,,,0,,,0
53174,,Comăneşti,,46.420944214,26.44978714,,,0,,,0
53203,,Asău Hm.,,46.43289566,26.393186569,,,0,,,0
53227,,Caraliţa h.,,46.443595886,26.339538574,,,0,,,0
53239,,Goioasa Hm.,,46.450984955,26.290441513,,,0,,,0
53241,,Simbrea Hm.,,46.489341736,26.216926575,,,0,,,0
53253,,Brusturoasa hc.,,46.522674561,26.172586441,,,0,,,0
53265,,Palanca Hm.,,46.534515381,26.128404617,,,0,,,0
53291,,Ghimeş,,46.557819366,26.10840416,,,0,,,0
53318,,Bolovăniş h.,,46.584102631,26.049230576,,,0,,,0
53332,,Lunca de Mijloc Hm.,,46.579120636,25.995279312,,,0,,,0
53356,,Tarcău h.,,46.567142487,25.974334717,,,0,,,0
53370,,Lunca de Sus Hm.,,46.537750244,25.963699341,,,0,,,0
53382,,Utuşoiu h.,,46.539203644,25.923648834,,,0,,,0
53394,,Livezi Ciuc,,46.526134491,25.889543533,,,0,,,0
53409,,Nădejdea Sat h.,,46.4894104,25.827974319,,,0,,,0
53411,,Nădejdea Hm.,,46.513114929,25.832206726,,,0,,,0
53423,,Mihăileni Hm.,,46.469554901,25.820026398,,,0,,,0
53435,,Caracău h.,,46.529972076,25.858762741,,,0,,,0
53631,,Hămeiuş h.,,46.627994537,26.857950211,,,0,,,0
53643,,Gârleni Hm.,,46.657440186,26.813943863,,,0,,,0
53655,,Lespezi Bacău h.,,46.665893555,26.768669128,,,0,,,0
53667,,Racova h.,,46.701969147,26.722269058,,,0,,,0
53679,,Buhuşi,,46.709976196,26.704324722,,,0,,,0
53693,,Costişa h.,,46.753494263,26.654745102,,,0,,,0
53710,,Podoleni Hm.,,46.797008514,26.61564827,,,0,,,0
53734,,Zăneşti Neamţ h.,,46.822216034,26.548627853,,,0,,,0
53758,,Roznov,,46.838859558,26.508924484,,,0,,,0
53760,,Săvineşti h.,,46.865756989,26.46969986,,,0,,,0
53784,,Dumbrava h.,,46.900539398,26.418880463,,,0,,,0
53813,,Piatra Neamţ,,46.926696777,26.361225128,,,0,,,0
53851,,Vaduri h.,,46.935070038,26.25771904,,,0,,,0
53863,,Pângăraţi Hm.,,46.930149078,26.204488754,,,0,,,0
53875,,Stejaru h.,,46.915378571,26.176296234,,,0,,,0
53887,,Tarcău Neamţ Hm.,,46.893684387,26.147146225,,,0,,,0
53916,,Bicaz,,46.908073425,26.098939896,,,0,,,0
54130,,Bursuceni h.,,47.668186188,26.447572708,,,0,,,0
54154,,Bucecea Hm,,47.761947632,26.442146301,,,0,,,0
54180,,Leorda Hm.,,47.81685257,26.481397629,,,0,,,0
54233,,Botoşani,,47.75365448,26.644306183,,,0,,,0
54374,,Dorohoi,,47.962142944,26.392433167,,,0,,,0
54439,,Suceava Vest,,47.647750854,26.223396301,,,0,,,0
54465,,Stroieşti,,47.615955353,26.112991333,,,0,,,0
54489,,Ciprian Porumbescu Hm.,,47.558174133,26.107889175,,,0,,,0
54506,,Lucăceşti h.,,47.505687714,26.102085114,,,0,,,0
54520,,Berchişeşti Hm.,,47.515895844,26.019546509,,,0,,,0
54544,,Gura Humorului Hm.,,47.552593231,25.941875458,,,0,,,0
54556,,Gura Humorului Oraş,,47.550941467,25.88385582,,,0,,,0
54570,,Frasin Hm.,,47.541870117,25.792188644,,,0,,,0
54594,,Molid Hm.,,47.566436768,25.734382629,,,0,,,0
54609,,Vama,,47.55254364,25.677482605,,,0,,,0
54611,,Prisaca Dornei Hm.,,47.540065765,25.660480499,,,0,,,0
54635,,Câmpulung Est Hm.,,47.517482758,25.596902847,,,0,,,0
54661,,Câmpulung Mold.,,47.533847809,25.552923203,,,0,,,0
54697,,Sadova Hm.,,47.537006378,25.510557175,,,0,,,0
54702,,Pojorâta Hm.,,47.525497437,25.476104736,,,0,,,0
54726,,Valea Putnei P.M.,,47.489387512,25.38495636,,,0,,,0
54740,,Mestecăniş Hm.,,47.450973511,25.340305328,,,0,,,0
54764,,Iacobeni,,47.430038452,25.308292389,,,0,,,0
54788,,Argestru Hm.,,47.382411957,25.320692062,,,0,,,0
54817,,Vatra Dornei,,47.352241516,25.357746124,,,0,,,0
54843,,Vatra Dornei Băi hc.,,47.346645355,25.358184814,,,0,,,0
54867,,Roşu Hm.,,47.353500366,25.304515839,,,0,,,0
54879,,Dorna Candrenilor h.,,47.358131409,25.256040573,,,0,,,0
54881,,Floreni,,47.359306335,25.222667694,,,0,,,0
54908,,Coşna Hm.,,47.371627808,25.151212692,,,0,,,0
54922,,Grădiniţa Hm.,,47.342140198,25.064498901,,,0,,,0
54946,,Larion Hm.,,47.332145691,25.024526596,,,0,,,0
54958,,Silhoasa Hm.,,47.348312378,25.011138916,,,0,,,0
54972,,Lunca Ilvei,,47.367160797,24.9637146,,,0,,,0
54996,,Ilva Mare Hm.,,47.364147186,24.872468948,,,0,,,0
55005,,Măgura Ilvei Hm.,,47.379772186,24.792518616,,,0,,,0
55017,,Poiana Ilvei,,47.369316101,24.741249084,,,0,,,0
55031,,Leşu Ilvei Hm.,,47.315570831,24.691772461,,,0,,,0
55043,,Strâmba h.,,47.304458618,24.66775322,,,0,,,0
55110,,Ilva Mică,,47.30588913,24.638040543,,,0,,,0
55134,,Podereia Feldrului h.,,47.285556793,24.616800308,,,0,,,0
55146,,Feldru Hm.,,47.275245667,24.593439102,,,0,,,0
55158,,Nepos h.,,47.279270172,24.536830902,,,0,,,0
55172,,Rebrişoara Hm.,,47.287555695,24.471910477,,,0,,,0
55184,,Năsăud,,47.281219482,24.410938263,,,0,,,0
55237,,Părhăuţi h.,,47.713027954,26.090373993,,,0,,,0
55251,,Todireşti h.,,47.692470551,26.042749405,,,0,,,0
55263,,Soloneţ h.,,47.667003632,26.008359909,,,0,,,0
55275,,Pârteşti h.,,47.644664764,25.97621727,,,0,,,0
55287,,Cacica Hm.,,47.638683319,25.930147171,,,0,,,0
55770,,Rădăuţi Gara Mică h.,,0.0,0.0,,,0,,,0
55782,,Rădăuţi,,47.839572906,25.909988403,,,0,,,0
55809,,Horodnicu h.,,47.867641449,25.860630035,,,0,,,0
55823,,Gălăneşti Hm.,,47.906200409,25.802431107,,,0,,,0
55835,,Vicov h.,,0.0,0.0,,,0,,,0
55847,,Vicovu de Jos h.,,47.903873444,25.726343155,,,0,,,0
55859,,Vicovu de Sus h.,,47.909748077,25.693704605,,,0,,,0
55861,,Bivolăria hc.,,47.913944244,25.655565262,,,0,,,0
55873,,Gura Putnei h.,,47.914600372,25.623046875,,,0,,,0
56035,,Putna  Hm.,,47.870277405,25.614843369,,,0,,,0
56047,,Putna Centru h,,0.0,0.0,,,0,,,0
56061,,Putna Troiţă h.,,0.0,0.0,,,0,,,0
56114,,Topile h.,,47.275745392,26.670825958,,,0,,,0
56126,,Cristeşti Paşcani hc.,,47.266487122,26.577196121,,,0,,,0
56138,,Timişeşti Hm.,,47.244167328,26.540117264,,,0,,,0
56140,,Plăieşu h.,,47.220695496,26.455230713,,,0,,,0
56152,,Târgu Neamţ,,47.199745178,26.360464096,,,0,,,0
56164,,Sfântu Mina h.,,47.209365845,26.425930023,,,0,,,0
57118,,Şeica Mică h.,,46.108974457,24.16938591,,,0,,,0
57132,,Saschiz h.,,46.23979187,24.961904526,,,0,,,0
57156,,Ţăgşor h.,,46.796218872,24.213201523,,,0,,,0
57182,,Şeuca h.,,46.33581543,24.334917068,,,0,,,0
57223,,Pav. CFR Braşov Triaj h.,,45.66727066,25.635210037,,,0,,,0
60309,,Tecuci,,45.835273743,27.42322731,,,0,,,0
60335,,Tecuci Nord hc.(605),,45.845718384,27.411613464,,,0,,,0
60373,,Frunzeasca Hm.,,45.901115417,27.420022964,,,0,,,0
60385,,Rateş Munteni h.,,45.928852081,27.431793213,,,0,,,0
60402,,Berheci Hm.,,45.975162506,27.438985825,,,0,,,0
60426,,Nichişeni,,46.045040131,27.457752228,,,0,,,0
60438,,Ghidigeni Hm.,,46.075706482,27.478254318,,,0,,,0
60452,,Tutova Hm.,,46.110206604,27.554344177,,,0,,,0
60476,,Dragalina h.,,46.161388397,27.599859238,,,0,,,0
60490,,Bârlad,,46.21516037,27.673748016,,,0,,,0
60517,,Zorleni Hm.,,46.266975403,27.726413727,,,0,,,0
60531,,Banca Hm.,,46.336051941,27.792150497,,,0,,,0
60555,,Dodeşti hc.,,46.375770569,27.821662903,,,0,,,0
60579,,Roşieşti hc.,,46.430477142,27.833913803,,,0,,,0
60593,,Crasna,,46.507049561,27.824384689,,,0,,,0
60610,,Bulboaca h.,,46.559482574,27.783067703,,,0,,,0
60622,,Munteni Hm.,,46.591724396,27.75790596,,,0,,,0
60658,,Vaslui,,46.626907349,27.726760864,,,0,,,0
60684,,Bălteni Hm.,,46.690673828,27.642684937,,,0,,,0
60696,,Brăhăşoaia h.,,46.719421387,27.607503891,,,0,,,0
60701,,Bârzeşti h.,,46.744987488,27.586904526,,,0,,,0
60725,,Buhăieşti,,46.797302246,27.560066223,,,0,,,0
60749,,Rateşu Cuzei h.,,46.8319664,27.565044403,,,0,,,0
60751,,Rebricea Hm.,,46.874637604,27.566919327,,,0,,,0
60775,,Scânteia Hm.,,46.923545837,27.567188263,,,0,,,0
60799,,Grajduri,,46.979305267,27.55090332,,,0,,,0
60804,,Bârnova Hm.,,47.013145447,27.568645477,,,0,,,0
60828,,Picioru Lupului h.,,47.053833008,27.573440552,,,0,,,0
60842,,Ciurea Hm.,,47.096294403,27.566717148,,,0,,,0
60878,,Nicolina,,47.147922516,27.579244614,,,0,,,0
60921,,Iaşi,,47.167461395,27.565719604,,,0,,,0
61016,,Socola,,47.139614105,27.612556458,,,0,,,0
61028,,Remiza T Socola h.,,47.140331268,27.639680862,,,0,,,0
61066,,Holboca Hm.,,47.147762299,27.689655304,,,0,,,0
61080,,Cristeşti Jijia,,47.171085358,27.72634697,,,0,,,0
61092,,Ungheni Prut Hm.,,47.200386047,27.784788132,,,0,,,0
61224,,G-ral. E. Grigorescu Hm.,,45.850631714,27.27870369,,,0,,,0
61250,,Cosmeşti Hm.,,45.859687805,27.335538864,,,0,,,0
61327,,Barboşi Triaj h.,,45.402404785,27.964220047,,,0,,,0
61339,,Şendreni Hm.,,45.41034317,27.922843933,,,0,,,0
61341,,Şerbeştii Vechi h.,,45.422206879,27.877229691,,,0,,,0
61377,,Braniştea h.,,45.438137054,27.834400177,,,0,,,0
61418,,Vasile Alecsandri h.,,45.451061249,27.796998978,,,0,,,0
61420,,Independenţa Hm.,,45.478233337,27.762443542,,,0,,,0
61444,,Piscu h.,,45.506946564,27.71995163,,,0,,,0
61456,,Vameş h.,,45.534240723,27.701572418,,,0,,,0
61470,,Tudor Vladimirescu hc.,,45.567066193,27.641159058,,,0,,,0
61494,,Hanu Conachi Hm.,,45.582271576,27.594646454,,,0,,,0
61509,,Şerbăneşti h.,,45.61423111,27.551872253,,,0,,,0
61511,,Lieşti Hm.,,45.632766724,27.53824234,,,0,,,0
61523,,Buceşti h.,,45.659832001,27.528570175,,,0,,,0
61535,,Iveşti Hm.,,45.68850708,27.517446518,,,0,,,0
61559,,Umbrăreşti h.,,45.723865509,27.492383957,,,0,,,0
61573,,Barcea,,45.768642426,27.474897385,,,0,,,0
61585,,Malul Alb h.,,45.792991638,27.461242676,,,0,,,0
61755,,Tuluceşti Hm.,,45.562484741,28.049606323,,,0,,,0
61779,,Şiviţa h.,,45.609546661,28.06196785,,,0,,,0
61793,,Frumuşiţa h.,,45.657115936,28.071334839,,,0,,,0
61810,,Stoicani h.,,45.704715729,28.083251953,,,0,,,0
61822,,Folteşti Hm.,,45.739402771,28.069633484,,,0,,,0
61846,,Chiraftei h.,,45.770580292,28.013652802,,,0,,,0
61858,,Fârţăneşti h.,,45.789302826,27.98184967,,,0,,,0
61860,,Băleni h.,,45.813522339,27.947868347,,,0,,,0
61872,,Umbrăreşti Sat h.,,45.84897995,27.920894623,,,0,,,0
61884,,Târgu Bujor,,45.867019653,27.923252106,,,0,,,0
61896,,Moscu hc.,,45.905906677,27.9328022,,,0,,,0
61913,,Roşcani h.,,45.953800201,27.937576294,,,0,,,0
61937,,Balinteşti h.,,46.024318695,27.924085617,,,0,,,0
61949,,Bereşti Tunel h.,,46.107448578,27.881885529,,,0,,,0
61951,,Bereşti Hm.,,46.085136414,27.89153862,,,0,,,0
61963,,Tălăşmani h.,,46.132125854,27.841051102,,,0,,,0
61987,,Docăneasa hc.,,46.114364624,27.783252716,,,0,,,0
61999,,Lungeşti h.,,46.115371704,27.751893997,,,0,,,0
62008,,Bălăbăneşti h.,,46.136066437,27.690353394,,,0,,,0
62010,,Griviţa h.,,46.161075592,27.65549469,,,0,,,0
62498,,Sagna h.,,46.959587097,27.00088501,,,0,,,0
62515,,Vulpăşeşti h.,,46.986526489,27.058794022,,,0,,,0
62527,,Stăniţa h.,,46.990337372,27.096391678,,,0,,,0
62541,,Piscu Rusului h.,,46.958873749,27.133037567,,,0,,,0
62565,,Dagâţa,,46.91784668,27.203613281,,,0,,,0
62589,,Suhuleţ h.,,46.862369537,27.223175049,,,0,,,0
62591,,Băluşeşti h,,46.889232635,27.21480751,,,0,,,0
62606,,Mareşal C-tin Prezan Hm.,,46.829147339,27.259971619,,,0,,,0
62618,,Zece Prăjini h,,46.942783356,27.174125671,,,0,,,0
62620,,Dumeşti h.,,46.837566376,27.329864502,,,0,,,0
62644,,Rafaila h.,,46.832489014,27.398399353,,,0,,,0
62656,,Negreşti Vaslui Hm.,,46.823871613,27.451957703,,,0,,,0
62759,,Leţcani,,47.194606781,27.392108917,,,0,,,0
62773,,Podu Iloaiei,,47.209156036,27.284542084,,,0,,,0
62797,,Budăi hc.,,47.217597961,27.222064972,,,0,,,0
62814,,Sârca Hm.,,47.214939117,27.151884079,,,0,,,0
62840,,Târgu Frumos,,47.205028534,27.012683868,,,0,,,0
62864,,Pietrişu h.,,47.209186554,26.953157425,,,0,,,0
62876,,Costeşti Iaşi hc.,,47.229251862,26.920972824,,,0,,,0
62890,,Ruginoasa Hm.,,47.240852356,26.843782425,,,0,,,0
62981,,Erbiceni hc.,,47.248085022,27.249967575,,,0,,,0
63002,,Spinoasa h.,,47.254962921,27.184375763,,,0,,,0
63026,,Belceşti Hm.,,47.29763031,27.081272125,,,0,,,0
63038,,Podu Ulmi h.,,47.305786133,27.057514191,,,0,,,0
63040,,Hodora h.,,47.32989502,27.013669968,,,0,,,0
63064,,Cotnari h.,,47.349029541,26.971973419,,,0,,,0
63088,,Cepleniţa hc.,,47.379684448,26.963342667,,,0,,,0
63090,,Bădeni hc.,,47.406047821,26.949972153,,,0,,,0
63105,,Hârlău,,47.418827057,26.921674728,,,0,,,0
63181,,Movileni h,,47.267883301,27.374582291,,,0,,,0
63193,,Potângeni hc.,,47.324562073,27.353818893,,,0,,,0
63208,,Larga Jijia Hm.,,47.331432343,27.383489609,,,0,,,0
63210,,Biserica Larga Jijia h.,,47.31678772,27.385602951,,,0,,,0
63222,,Vlădeni,,47.406398773,27.324262619,,,0,,,0
63246,,Iacobenii Vechi h.,,47.445957184,27.305837631,,,0,,,0
63258,,Şoldana h.,,47.483100891,27.299985886,,,0,,,0
63260,,Andrieşeni hc.,,47.514129639,27.273967743,,,0,,,0
63272,,Corlăteni h,,47.922229767,26.548675537,,,0,,,0
63284,,Rediu hc.,,47.541690826,27.246139526,,,0,,,0
63296,,Răuşeni hc.,,47.564655304,27.205104828,,,0,,,0
63325,,Todireni Hm.,,47.597957611,27.152936935,,,0,,,0
63349,,Jijia h.,,47.656661987,27.088661194,,,0,,,0
63363,,Zlătunoaia h,,47.694099426,27.056692123,,,0,,,0
63387,,Truşeşti,,47.765335083,27.004249573,,,0,,,0
63399,,Buhăceni h.,,47.806583405,26.995706558,,,0,,,0
63416,,Dângeni,,47.852882385,26.959781647,,,0,,,0
63428,,Dângeni Nord h.,,47.867397308,26.896287918,,,0,,,0
63430,,Ungureni Hm.,,47.885040283,26.796657562,,,0,,,0
63442,,Mândreşti h.,,47.90612793,26.747276306,,,0,,,0
63466,,Vorniceni h.,,47.922668457,26.656175613,,,0,,,0
63478,,Mateieni h.,,47.920036316,26.600494385,,,0,,,0
63480,,Broscăuţi h.,,47.956932068,26.456691742,,,0,,,0
63492,,Carasa h.,,47.927829742,26.518188477,,,0,,,0
70017,,Pajura Hm. (700),,44.479225159,26.023439407,,,0,,,0
70029,,Parc Mogoşoaia h.,,0.0,0.0,,,0,,,0
70031,,Mogoşoaia,,44.535652161,26.023403168,,,0,,,0
70043,,Odăile h.,,44.570121765,26.052923203,,,0,,,0
70055,,Baloteşti Hm.,,44.591274261,26.098993301,,,0,,,0
70079,,Caciulati Hm.,,44.610588074,26.158241272,,,0,,,0
70110,,Moara Vlasiei Hm.,,44.637325287,26.215089798,,,0,,,0
70134,,Greci h.,,44.651920319,26.293722153,,,0,,,0
70158,,Fierbinţi,,44.665863037,26.368648529,,,0,,,0
70172,,Dridu Hm.,,44.681442261,26.449317932,,,0,,,0
70184,,Moldoveni h.,,44.71831131,26.508205414,,,0,,,0
70201,,Armăşeşti Hm.,,44.729709625,26.561775208,,,0,,,0
70213,,Bărbuleşti h.,,44.722259521,26.601959229,,,0,,,0
70237,,Urziceni,,44.71950531,26.644664764,,,0,,,0
70407,,Pogoanele,,44.884788513,26.999799728,,,0,,,0
70469,,Ruşeţu Hm.,,44.988613129,27.201690674,,,0,,,0
70512,,Făurei,,45.082763672,27.274862289,,,0,,,0
70536,,Găiseanca h.,,45.09186554,27.322296143,,,0,,,0
70550,,Deduleşti Hm.,,45.108985901,27.399663925,,,0,,,0
70574,,Ianca hc.,,45.127635956,27.483758926,,,0,,,0
70586,,Plopu,,45.140090942,27.521799088,,,0,,,0
70603,,Urleasca Hm.,,45.167987823,27.621105194,,,0,,,0
70627,,Traian Sat Hm.,,45.186992645,27.731899261,,,0,,,0
70677,,Lacu Sărat,,45.227134705,27.867959976,,,0,,,0
70706,,Brăila,,45.281764984,27.955966949,,,0,,,0
70768,,Baldovineşti Hm.,,45.325489044,27.906248093,,,0,,,0
70782,,Vădeni Hm.,,45.364063263,27.919998169,,,0,,,0
70794,,Zagna Vădeni h.,,45.379741669,27.962263107,,,0,,,0
70835,,Barboşi,,45.402320862,27.988382339,,,0,,,0
71011,,Fileşti Hm.,,45.443561554,28.006788254,,,0,,,0
71059,,Galaţi,,45.444503784,28.0616436,,,0,,,0
71516,,Dâmbu Hm.,,44.922733307,26.071882248,,,0,,,0
71530,,Corlăteşti Hm.,,44.899997711,26.119487762,,,0,,,0
71542,,Râfov h.,,44.891208649,26.139751434,,,0,,,0
71554,,Trestieni h.,,44.872257233,26.178016663,,,0,,,0
71566,,Zănoaga Hm.,,44.862670898,26.203914642,,,0,,,0
71578,,Cornurile h.,,44.850456238,26.237211227,,,0,,,0
71580,,Drăgăneşti Prahova Hm.,,44.828178406,26.301460266,,,0,,,0
71592,,Hătcărău h.,,44.813518524,26.326921463,,,0,,,0
71619,,Ciorani Hm.,,44.789802551,26.384614944,,,0,,,0
71621,,Fulga hc.,,44.773895264,26.432373047,,,0,,,0
71645,,Ialomiţa Hm.,,44.748443604,26.507759094,,,0,,,0
71669,,Alexeni h.,,44.686950684,26.701469421,,,0,,,0
71683,,Broşteni Hm.,,44.66904068,26.769226074,,,0,,,0
71695,,Malu h.,,44.653808594,26.82497406,,,0,,,0
71700,,Km. 74+600 h.,,44.649002075,26.866474152,,,0,,,0
71712,,Sărăţuica Hm.,,44.639148712,26.902029037,,,0,,,0
71724,,Munteni Buzău h.,,44.64773941,26.972166061,,,0,,,0
71736,,Căzăneşti,,44.634128571,27.00336647,,,0,,,0
71748,,Sărăţeni Ialomiţa h.,,44.641941071,26.931182861,,,0,,,0
71750,,Ciochina hc.,,44.606746674,27.058359146,,,0,,,0
71774,,Andrăşeşti Hm.,,44.580371857,27.147657394,,,0,,,0
71786,,Fundata h.,,44.580554962,27.196191788,,,0,,,0
71798,,Perieţi h.,,44.581241608,27.256269455,,,0,,,0
71889,,Ţăndărei,,44.64705658,27.648677826,,,0,,,0
72120,,Buzău Sud,,45.122020721,26.867641449,,,0,,,0
72144,,Tăbărăşti h.,,45.081363678,26.90489006,,,0,,,0
72156,,Tăbărăşti Sud h.,,45.0691185,26.930698395,,,0,,,0
72168,,Bentu h.,,45.055416107,26.977245331,,,0,,,0
72170,,Cilibia Hm.,,45.043712616,27.022165298,,,0,,,0
72182,,Movila Oii h.,,45.043766022,27.073438644,,,0,,,0
72209,,C.A.Rosetti Hm.,,45.058891296,27.15060997,,,0,,,0
72223,,Vizireni h.,,45.066898346,27.192106247,,,0,,,0
72235,,CTF Făurei h.,,45.077297211,27.246553421,,,0,,,0
72261,,Cireşu Hm.,,44.970775604,27.3699646,,,0,,,0
72273,,Scărlăteşti hc.,,44.940071106,27.394735336,,,0,,,0
72297,,Dudeşti Hm.,,44.888187408,27.436740875,,,0,,,0
72314,,Spicu,,44.815006256,27.512050629,,,0,,,0
72338,,Murgeanca Hm.,,44.742076874,27.574157715,,,0,,,0
80036,,Bucureşti Băneasa,,44.485370636,26.074085236,,,0,,,0
80074,,Bucureşti Obor,,44.450836182,26.136806488,,,0,,,0
80098,,Pantelimon Sud hc.,,44.477493286,26.17814827,,,0,,,0
80103,,Pantelimon,,44.478523254,26.191381454,,,0,,,0
80139,,Pasărea,,44.468761444,26.265474319,,,0,,,0
80153,,Brăneşti Hm.,,44.4585495,26.358030319,,,0,,,0
80165,,Brăneşti Sat h.,,44.46150589,26.314992905,,,0,,,0
80177,,Fundulea Hm.,,44.451931,26.508859634,,,0,,,0
80189,,Islaz h.,,44.457683563,26.38258934,,,0,,,0
80191,,Mostiştea h.,,44.447597504,26.582601547,,,0,,,0
80218,,Săruleşti,,44.445289612,26.656177521,,,0,,,0
80232,,Preasna h.,,44.445613861,26.748472214,,,0,,,0
80256,,Lehliu,,44.43844986,26.858573914,,,0,,,0
80268,,Dor Mărunt Sat h.,,44.435916901,26.923667908,,,0,,,0
80270,,Dor Mărunt Hm.,,44.43535614,26.9576931,,,0,,,0
80294,,Dâlga h.,,44.433410645,27.045412064,,,0,,,0
80309,,Bogdana h.,,44.431995392,27.12519455,,,0,,,0
80323,,Dragoş Vodă Hm.,,44.43132019,27.186361313,,,0,,,0
80347,,Ivăneşti h.,,44.430046082,27.260442734,,,0,,,0
80361,,Ciulniţa,,44.427814484,27.350585938,,,0,,,0
80397,,Ogoarele h.,,44.425514221,27.464487076,,,0,,,0
80402,,Perişoru Hm.,,44.424613953,27.505273819,,,0,,,0
80414,,Recolta hc.,,44.424098969,27.53673172,,,0,,,0
80426,,Jegălia,,44.423381805,27.583665848,,,0,,,0
80438,,Ştefan cel Mare h.,,44.421714783,27.638483047,,,0,,,0
80440,,Bărăganu Hm.,,44.420578003,27.697845459,,,0,,,0
80505,,Feteşti,,44.417358398,27.821569443,,,0,,,0
80543,,Ramificaţia Borcea Hm.,,44.386795044,27.844697952,,,0,,,0
80555,,Ovidiu Hm.,,44.374629974,27.87919426,,,0,,,0
80579,,Dunărea Hm.,,44.352287292,27.969173431,,,0,,,0
80581,,Cernavodă Pod,,44.338996887,28.024290085,,,0,,,0
80610,,Saligny,,44.300971985,28.066505432,,,0,,,0
80634,,Mircea Vodă Hm.,,44.266662598,28.143966675,,,0,,,0
80684,,Medgidia,,44.251789093,28.273859024,,,0,,,0
80737,,Castelu h.,,44.251495361,28.335672379,,,0,,,0
80749,,Dorobanţu,,44.238796234,28.367805481,,,0,,,0
80751,,Poarta Albă h.,,44.205631256,28.391017914,,,0,,,0
80763,,Basarabi,,44.171737671,28.417837143,,,0,,,0
80775,,Valul lui Traian Hm.,,44.163314819,28.507925034,,,0,,,0
80787,,Murfatlar h.,,44.166004181,28.454263687,,,0,,,0
80830,,Palas,,44.164966583,28.583869934,,,0,,,0
80892,,Constanţa,,44.168617249,28.631479263,,,0,,,0
81016,,Agigea Nord,,44.124973297,28.634614944,,,0,,,0
81054,,Agigea Ecluză Hm.,,44.087451935,28.624593735,,,0,,,0
81066,,Eforie Nord,,44.057926178,28.631572723,,,0,,,0
81080,,Eforie Sud,,44.033691406,28.645105362,,,0,,,0
81092,,Costineşti Tabără hc.,,43.942707062,28.631820679,,,0,,,0
81107,,Tuzla h.,,44.008247375,28.642906189,,,0,,,0
81119,,Costineşti,,43.9596138,28.636386871,,,0,,,0
81121,,Pescăruş h.,,43.903720856,28.61866951,,,0,,,0
81133,,Neptun hc.,,43.886024475,28.604829788,,,0,,,0
81171,,Neptun Hm.,,43.860145569,28.578586578,,,0,,,0
81183,,Mangalia,,43.822471619,28.581712723,,,0,,,0
81640,,Luica h.,,44.225234985,26.56360054,,,0,,,0
81664,,Titan Sud Hm.,,44.425437927,26.225215912,,,0,,,0
81690,,Buc. Sud Gr. Călători,,44.422153473,26.238143921,,,0,,,0
81717,,PO Podu Pitarului h.,,44.34614563,26.376909256,,,0,,,0
81731,,Tânganu h.,,44.394123077,26.320968628,,,0,,,0
81743,,Frunzăneşti h.,,44.378982544,26.343801498,,,0,,,0
81755,,Plătăreşti hc.,,44.355808258,26.371007919,,,0,,,0
81767,,Cucuieţi Sudiţi h.,,44.330802917,26.387775421,,,0,,,0
81779,,Gălbinaşi hc.,,44.312232971,26.413942337,,,0,,,0
81781,,Vasilaţi hc.,,44.28560257,26.442913055,,,0,,,0
81793,,Budeşti Hm.,,44.238826752,26.466615677,,,0,,,0
81808,,Şoldanu h.,,44.232822418,26.516836166,,,0,,,0
81810,,Curcani h.,,44.207321167,26.592611313,,,0,,,0
81822,,Valea Roşie hc.,,44.169750214,26.615404129,,,0,,,0
81846,,Olteniţa,,44.085403442,26.644971848,,,0,,,0
82060,,Căldăraru h.,,44.40606308,26.277687073,,,0,,,0
82072,,Slobozia Veche,,44.567928314,27.34828949,,,0,,,0
82084,,Negoieşti h.,,44.233539581,26.501522064,,,0,,,0
82101,,Slobozia Sud Hm.,,44.524715424,27.371305466,,,0,,,0
82125,,Brâncoveni h.,,44.480243683,27.368486404,,,0,,,0
82163,,Ştefan Vodă h.,,44.32611084,27.328264236,,,0,,,0
82175,,Călăraşi Nord Hm.,,44.260574341,27.324083328,,,0,,,0
82199,,Km. 25+700 h.,,44.205387115,27.32371521,,,0,,,0
82204,,Călăraşi Sud,,44.200569153,27.333660126,,,0,,,0
82321,,Platoneşti h.,,44.598220825,27.676782608,,,0,,,0
82345,,Movila Hm.,,44.539844513,27.717899323,,,0,,,0
82852,,Nicolae Bălcescu,,44.376976013,28.380397797,,,0,,,0
82890,,Târguşor Dobrogea Hm.,,44.464729309,28.439987183,,,0,,,0
82955,,Cogealac,,44.570972443,28.565820694,,,0,,,0
82993,,Mihai Viteazu Hm.,,44.65096283,28.679189682,,,0,,,0
83026,,Baia Dobrogea,,44.72844696,28.683704376,,,0,,,0
83040,,Ceamurlia de Jos h.,,44.765670776,28.721906662,,,0,,,0
83090,,Babadag,,44.892505646,28.706493378,,,0,,,0
83129,,Zebil h.,,44.964889526,28.719482422,,,0,,,0
83143,,Mihail Kogălniceanu h.,,45.038211823,28.746387482,,,0,,,0
83167,,Cataloi Hm.,,45.105167389,28.749773026,,,0,,,0
83193,,Tulcea Mărfuri,,45.169055939,28.766117096,,,0,,,0
83222,,Tulcea Oraş,,45.18239975,28.790788651,,,0,,,0
89733,,Ram. M.K.P. Aj. M.,,44.397548676,28.440170288,,,0,,,0
935,,Vadu Siretului,,48.023902893,25.959941864,,,0,,,0
936,,Ungheni Prut Fr.,,47.199947357,27.786977768,,,0,,,0
